\c:1552136603*5B\$GPGLL,3247.221,N,07954.564,W,130351,A,A*5B	\c:1552136602*5A\$IIVWT,044,L,02.64,N,01.36,M,,*2E
\c:1552136605*5D\$GPGLL,3247.221,N,07954.564,W,130353,A,A*59	\c:1552136604*5C\$IIVWT,030,L,02.64,N,01.36,M,,*2D
\c:1552136607*5F\$GPGLL,3247.221,N,07954.564,W,130355,A,A*5F	\c:1552136606*5E\$IIVWT,032,L,02.54,N,01.31,M,,*2B
\c:1552136609*51\$GPGLL,3247.221,N,07954.564,W,130357,A,A*5D	\c:1552136608*50\$IIVWT,002,L,02.39,N,01.23,M,,*20
\c:1552136611*58\$GPGLL,3247.221,N,07954.564,W,130359,A,A*53	\c:1552136610*59\$IIVWT,006,L,02.25,N,01.16,M,,*2F
\c:1552136613*5A\$GPGLL,3247.221,N,07954.564,W,130401,A,A*59	\c:1552136612*5B\$IIVWT,005,L,01.74,N,00.90,M,,*24
\c:1552136615*5C\$GPGLL,3247.221,N,07954.564,W,130403,A,A*5B	\c:1552136614*5D\$IIVWT,086,L,01.74,N,00.90,M,,*2F
\c:1552136617*5E\$GPGLL,3247.221,N,07954.564,W,130405,A,A*5D	\c:1552136616*5F\$IIVWT,098,L,01.43,N,00.74,M,,*2E
\c:1552136619*50\$GPGLL,3247.221,N,07954.564,W,130407,A,A*5F	\c:1552136618*51\$IIVWT,094,L,01.14,N,00.59,M,,*2F
\c:1552136621*5B\$GPGLL,3247.222,N,07954.564,W,130409,A,A*52	\c:1552136620*5A\$IIVWT,094,L,01.14,N,00.59,M,,*2F
\c:1552136623*59\$GPGLL,3247.2160,N,07954.5641,W,130412.000,A,A*40	\c:1552136622*58\$IIVWT,101,L,01.16,N,00.60,M,,*2A
\c:1552136623*59\$GPGLL,3247.222,N,07954.564,W,130411,A,A*5B	\c:1552136624*5E\$IIVWT,100,L,01.14,N,00.59,M,,*23
\c:1552136624*5E\$GPGLL,3247.2160,N,07954.5640,W,130413.000,A,A*40	\c:1552136626*5C\$IIVWT,077,L,01.57,N,00.81,M,,*20
\c:1552136625*5F\$GPGLL,3247.2159,N,07954.5640,W,130414.000,A,A*4D	\c:1552136628*52\$IIVWT,075,L,01.67,N,00.86,M,,*26
\c:1552136625*5F\$GPGLL,3247.222,N,07954.564,W,130413,A,A*59	\c:1552136630*5B\$IIVWT,075,L,01.74,N,00.90,M,,*23
\c:1552136626*5C\$GPGLL,3247.2159,N,07954.5640,W,130415.000,A,A*4C	\c:1552136633*58\$IIVWT,066,L,01.80,N,00.93,M,,*29
\c:1552136627*5D\$GPGLL,3247.2159,N,07954.5640,W,130416.000,A,A*4F	\c:1552136635*5E\$IIVWT,053,L,02.09,N,01.08,M,,*2E
\c:1552136627*5D\$GPGLL,3247.222,N,07954.564,W,130415,A,A*5F	\c:1552136637*5C\$IIVWT,042,L,02.42,N,01.25,M,,*2E
\c:1552136628*52\$GPGLL,3247.2159,N,07954.5639,W,130417.000,A,A*40	\c:1552136639*52\$IIVWT,043,L,02.54,N,01.31,M,,*2D
\c:1552136629*53\$GPGLL,3247.2159,N,07954.5639,W,130418.000,A,A*4F	\c:1552136641*5D\$IIVWT,042,L,02.54,N,01.31,M,,*2C
\c:1552136629*53\$GPGLL,3247.222,N,07954.564,W,130417,A,A*5D	\c:1552136643*5F\$IIVWT,042,L,02.48,N,01.28,M,,*29
\c:1552136630*5B\$GPGLL,3247.2159,N,07954.5639,W,130419.000,A,A*4E	\c:1552136645*59\$IIVWT,041,L,02.44,N,01.26,M,,*28
\c:1552136631*5A\$GPGLL,3247.2159,N,07954.5639,W,130420.000,A,A*44	\c:1552136647*5B\$IIVWT,042,L,02.29,N,01.18,M,,*2D
\c:1552136631*5A\$GPGLL,3247.222,N,07954.564,W,130419,A,A*53	\c:1552136649*55\$IIVWT,038,L,02.39,N,01.23,M,,*29
\c:1552136632*59\$GPGLL,3247.2159,N,07954.5639,W,130421.000,A,A*45	\c:1552136651*5C\$IIVWT,037,L,02.33,N,01.20,M,,*2F
\c:1552136633*58\$GPGLL,3247.2159,N,07954.5639,W,130422.000,A,A*46	\c:1552136653*5E\$IIVWT,037,L,02.31,N,01.19,M,,*27
\c:1552136633*58\$GPGLL,3247.222,N,07954.564,W,130421,A,A*58	\c:1552136655*58\$IIVWT,033,L,02.39,N,01.23,M,,*22
\c:1552136634*5F\$GPGLL,3247.2159,N,07954.5639,W,130423.000,A,A*47	\c:1552136657*5A\$IIVWT,047,L,02.39,N,01.23,M,,*21
\c:1552136635*5E\$GPGLL,3247.2159,N,07954.5639,W,130424.000,A,A*40	\c:1552136659*54\$IIVWT,043,L,02.42,N,01.25,M,,*2F
\c:1552136635*5E\$GPGLL,3247.222,N,07954.564,W,130423,A,A*5A	\c:1552136661*5F\$IIVWT,043,L,02.52,N,01.30,M,,*2A
\c:1552136636*5D\$GPGLL,3247.2159,N,07954.5639,W,130425.000,A,A*41	\c:1552136663*5D\$IIVWT,042,L,02.77,N,01.43,M,,*28
\c:1552136637*5C\$GPGLL,3247.2159,N,07954.5639,W,130426.000,A,A*42	\c:1552136665*5B\$IIVWT,053,L,02.91,N,01.50,M,,*22
\c:1552136637*5C\$GPGLL,3247.222,N,07954.564,W,130425,A,A*5C	\c:1552136668*56\$IIVWT,051,L,02.97,N,01.53,M,,*25
\c:1552136638*53\$GPGLL,3247.2159,N,07954.5639,W,130427.000,A,A*43	\c:1552136669*57\$IIVWT,051,L,02.76,N,01.42,M,,*2A
\c:1552136639*52\$GPGLL,3247.2159,N,07954.5639,W,130428.000,A,A*4C	\c:1552136671*5E\$IIVWT,052,L,02.76,N,01.42,M,,*29
\c:1552136639*52\$GPGLL,3247.222,N,07954.564,W,130427,A,A*5E	\c:1552136673*5C\$IIVWT,044,L,02.48,N,01.28,M,,*2F
\c:1552136640*5C\$GPGLL,3247.2159,N,07954.5639,W,130429.000,A,A*4D	\c:1552136676*59\$IIVWT,046,L,02.39,N,01.23,M,,*20
\c:1552136641*5D\$GPGLL,3247.2159,N,07954.5639,W,130430.000,A,A*45	\c:1552136678*57\$IIVWT,047,L,02.39,N,01.23,M,,*21
\c:1552136642*5E\$GPGLL,3247.222,N,07954.564,W,130429,A,A*50	\c:1552136680*50\$IIVWT,044,L,02.56,N,01.32,M,,*2B
\c:1552136642*5E\$GPGLL,3247.2159,N,07954.5639,W,130431.000,A,A*44	\c:1552136682*52\$IIVWT,042,L,02.62,N,01.35,M,,*2D
\c:1552136643*5F\$GPGLL,3247.2159,N,07954.5639,W,130432.000,A,A*47	\c:1552136684*54\$IIVWT,030,L,02.77,N,01.43,M,,*2D
\c:1552136644*58\$GPGLL,3247.222,N,07954.564,W,130431,A,A*59	\c:1552136686*56\$IIVWT,032,L,02.64,N,01.36,M,,*2F
\c:1552136644*58\$GPGLL,3247.2159,N,07954.5639,W,130433.000,A,A*46	\c:1552136688*58\$IIVWT,043,L,02.54,N,01.31,M,,*2D
\c:1552136645*59\$GPGLL,3247.2158,N,07954.5639,W,130434.000,A,A*40	\c:1552136690*51\$IIVWT,052,L,02.54,N,01.31,M,,*2D
\c:1552136646*5A\$GPGLL,3247.222,N,07954.564,W,130433,A,A*5B	\c:1552136692*53\$IIVWT,052,L,02.46,N,01.27,M,,*29
\c:1552136646*5A\$GPGLL,3247.2158,N,07954.5638,W,130435.000,A,A*40	\c:1552136695*54\$IIVWT,046,L,02.62,N,01.35,M,,*29
\c:1552136647*5B\$GPGLL,3247.2158,N,07954.5638,W,130436.000,A,A*43	\c:1552136696*57\$IIVWT,035,L,02.64,N,01.36,M,,*28
\c:1552136648*54\$GPGLL,3247.222,N,07954.564,W,130435,A,A*5D	\c:1552136698*59\$IIVWT,041,L,02.83,N,01.46,M,,*25
\c:1552136648*54\$GPGLL,3247.2158,N,07954.5638,W,130437.000,A,A*42	\c:1552136700*59\$IIVWT,034,L,02.83,N,01.46,M,,*27
\c:1552136649*55\$GPGLL,3247.2157,N,07954.5638,W,130438.000,A,A*42	\c:1552136702*5B\$IIVWT,034,L,02.99,N,01.54,M,,*2F
\c:1552136650*5D\$GPGLL,3247.222,N,07954.564,W,130437,A,A*5F	\c:1552136704*5D\$IIVWT,030,L,02.95,N,01.52,M,,*21
\c:1552136650*5D\$GPGLL,3247.2157,N,07954.5638,W,130439.000,A,A*43	\c:1552136706*5F\$IIVWT,043,L,02.77,N,01.43,M,,*29
\c:1552136651*5C\$GPGLL,3247.2157,N,07954.5639,W,130440.000,A,A*4C	\c:1552136708*51\$IIVWT,018,L,02.62,N,01.35,M,,*22
\c:1552136652*5F\$GPGLL,3247.222,N,07954.564,W,130439,A,A*51	\c:1552136710*58\$IIVWT,051,L,02.48,N,01.28,M,,*2B
\c:1552136652*5F\$GPGLL,3247.2157,N,07954.5639,W,130441.000,A,A*4D	\c:1552136712*5A\$IIVWT,042,L,02.42,N,01.25,M,,*2E
\c:1552136653*5E\$GPGLL,3247.2157,N,07954.5639,W,130442.000,A,A*4E	\c:1552136714*5C\$IIVWT,040,L,02.27,N,01.17,M,,*2E
\c:1552136654*59\$GPGLL,3247.222,N,07954.564,W,130441,A,A*5E	\c:1552136716*5E\$IIVWT,008,L,02.15,N,01.11,M,,*25
\c:1552136654*59\$GPGLL,3247.2156,N,07954.5638,W,130443.000,A,A*4F	\c:1552136719*51\$IIVWT,016,L,02.15,N,01.11,M,,*2A
\c:1552136655*58\$GPGLL,3247.2155,N,07954.5639,W,130444.000,A,A*4A	\c:1552136721*5A\$IIVWT,039,L,02.15,N,01.11,M,,*27
\c:1552136656*5B\$GPGLL,3247.222,N,07954.564,W,130443,A,A*5C	\c:1552136723*58\$IIVWT,046,L,02.17,N,01.12,M,,*2E
\c:1552136656*5B\$GPGLL,3247.2155,N,07954.5640,W,130445.000,A,A*45	\c:1552136725*5E\$IIVWT,045,L,01.98,N,01.02,M,,*28
\c:1552136657*5A\$GPGLL,3247.2155,N,07954.5642,W,130446.000,A,A*44	\c:1552136727*5C\$IIVWT,036,L,02.06,N,01.06,M,,*2C
\c:1552136658*55\$GPGLL,3247.222,N,07954.564,W,130445,A,A*5A	\c:1552136729*52\$IIVWT,016,L,02.29,N,01.18,M,,*2C
\c:1552136658*55\$GPGLL,3247.2155,N,07954.5642,W,130447.000,A,A*45	\c:1552136731*5B\$IIVWT,039,L,02.31,N,01.19,M,,*29
\c:1552136659*54\$GPGLL,3247.2155,N,07954.5642,W,130448.000,A,A*4A	\c:1552136733*59\$IIVWT,041,L,02.15,N,01.11,M,,*28
\c:1552136660*5E\$GPGLL,3247.222,N,07954.564,W,130447,A,A*58	\c:1552136735*5F\$IIVWT,032,L,02.21,N,01.14,M,,*2E
\c:1552136660*5E\$GPGLL,3247.2155,N,07954.5642,W,130449.000,A,A*4B	\c:1552136737*5D\$IIVWT,045,L,02.21,N,01.14,M,,*2E
\c:1552136661*5F\$GPGLL,3247.2155,N,07954.5642,W,130450.000,A,A*43	\c:1552136739*53\$IIVWT,046,L,02.21,N,01.14,M,,*2D
\c:1552136662*5C\$GPGLL,3247.222,N,07954.564,W,130449,A,A*56	\c:1552136741*5C\$IIVWT,034,L,02.42,N,01.25,M,,*2F
\c:1552136662*5C\$GPGLL,3247.2155,N,07954.5642,W,130451.000,A,A*42	\c:1552136743*5E\$IIVWT,039,L,02.25,N,01.16,M,,*23
\c:1552136663*5D\$GPGLL,3247.2155,N,07954.5642,W,130452.000,A,A*41	\c:1552136745*58\$IIVWT,023,L,02.21,N,01.14,M,,*2E
\c:1552136664*5A\$GPGLL,3247.222,N,07954.564,W,130453,A,A*5D	\c:1552136747*5A\$IIVWT,000,R,02.35,N,01.21,M,,*32
\c:1552136664*5A\$GPGLL,3247.2155,N,07954.5642,W,130453.000,A,A*40	\c:1552136749*54\$IIVWT,028,L,02.60,N,01.34,M,,*22
\c:1552136665*5B\$GPGLL,3247.2155,N,07954.5642,W,130454.000,A,A*47	\c:1552136751*5D\$IIVWT,024,L,02.48,N,01.28,M,,*29
\c:1552136666*58\$GPGLL,3247.222,N,07954.564,W,130455,A,A*5B	\c:1552136753*5F\$IIVWT,001,R,02.35,N,01.21,M,,*33
\c:1552136666*58\$GPGLL,3247.2155,N,07954.5642,W,130455.000,A,A*46	\c:1552136755*59\$IIVWT,005,L,02.52,N,01.30,M,,*28
\c:1552136668*56\$GPGLL,3247.2155,N,07954.5642,W,130456.000,A,A*45	\c:1552136757*5B\$IIVWT,019,L,02.31,N,01.19,M,,*2B
\c:1552136668*56\$GPGLL,3247.2155,N,07954.5642,W,130457.000,A,A*44	\c:1552136759*55\$IIVWT,020,L,02.42,N,01.25,M,,*2A
\c:1552136668*56\$GPGLL,3247.222,N,07954.564,W,130457,A,A*59	\c:1552136762*5D\$IIVWT,029,L,02.41,N,01.24,M,,*21
\c:1552136669*57\$GPGLL,3247.2155,N,07954.5642,W,130458.000,A,A*4B	\c:1552136764*5B\$IIVWT,020,L,02.31,N,01.19,M,,*21
\c:1552136670*5F\$GPGLL,3247.2155,N,07954.5642,W,130459.000,A,A*4A	\c:1552136766*59\$IIVWT,034,L,02.21,N,01.14,M,,*28
\c:1552136670*5F\$GPGLL,3247.222,N,07954.564,W,130459,A,A*57	\c:1552136768*57\$IIVWT,042,L,02.21,N,01.14,M,,*29
\c:1552136671*5E\$GPGLL,3247.2155,N,07954.5642,W,130500.000,A,A*47	\c:1552136770*5E\$IIVWT,043,L,02.19,N,01.13,M,,*24
\c:1552136672*5D\$GPGLL,3247.2155,N,07954.5642,W,130501.000,A,A*46	\c:1552136772*5C\$IIVWT,040,L,02.31,N,01.19,M,,*27
\c:1552136672*5D\$GPGLL,3247.222,N,07954.564,W,130501,A,A*5B	\c:1552136774*5A\$IIVWT,031,L,02.39,N,01.23,M,,*20
\c:1552136673*5C\$GPGLL,3247.2155,N,07954.5642,W,130502.000,A,A*45	\c:1552136776*58\$IIVWT,029,L,02.62,N,01.35,M,,*20
\c:1552136674*5B\$GPGLL,3247.222,N,07954.564,W,130503,A,A*59	\c:1552136778*56\$IIVWT,027,L,02.81,N,01.45,M,,*24
\c:1552136674*5B\$GPGLL,3247.2155,N,07954.5642,W,130503.000,A,A*44	\c:1552136780*51\$IIVWT,034,L,02.81,N,01.45,M,,*26
\c:1552136675*5A\$GPGLL,3247.2155,N,07954.5642,W,130504.000,A,A*43	\c:1552136782*53\$IIVWT,049,L,02.64,N,01.36,M,,*23
\c:1552136676*59\$GPGLL,3247.2155,N,07954.5642,W,130505.000,A,A*42	\c:1552136784*55\$IIVWT,044,L,02.35,N,01.21,M,,*2C
\c:1552136676*59\$GPGLL,3247.222,N,07954.564,W,130505,A,A*5F	\c:1552136786*57\$IIVWT,032,L,02.39,N,01.23,M,,*23
\c:1552136677*58\$GPGLL,3247.2155,N,07954.5642,W,130506.000,A,A*41	\c:1552136788*59\$IIVWT,022,L,02.44,N,01.26,M,,*2D
\c:1552136678*57\$GPGLL,3247.2155,N,07954.5642,W,130507.000,A,A*40	\c:1552136790*50\$IIVWT,018,L,02.62,N,01.35,M,,*22
\c:1552136678*57\$GPGLL,3247.222,N,07954.564,W,130507,A,A*5D	\c:1552136792*52\$IIVWT,038,L,02.68,N,01.38,M,,*27
\c:1552136679*56\$GPGLL,3247.2155,N,07954.5642,W,130508.000,A,A*4F	\c:1552136794*54\$IIVWT,036,L,02.58,N,01.33,M,,*21
\c:1552136680*50\$GPGLL,3247.2155,N,07954.5642,W,130509.000,A,A*4E	\c:1552136796*56\$IIVWT,043,L,02.39,N,01.23,M,,*25
\c:1552136680*50\$GPGLL,3247.222,N,07954.564,W,130509,A,A*53	\c:1552136798*58\$IIVWT,025,L,02.39,N,01.23,M,,*25
\c:1552136681*51\$GPGLL,3247.2155,N,07954.5642,W,130510.000,A,A*46	\c:1552136800*56\$IIVWT,021,L,02.62,N,01.35,M,,*28
\c:1552136682*52\$GPGLL,3247.2155,N,07954.5642,W,130511.000,A,A*47	\c:1552136802*54\$IIVWT,030,L,02.68,N,01.38,M,,*2F
\c:1552136682*52\$GPGLL,3247.222,N,07954.564,W,130511,A,A*5A	\c:1552136805*53\$IIVWT,025,L,02.76,N,01.42,M,,*29
\c:1552136684*54\$GPGLL,3247.2155,N,07954.5642,W,130512.000,A,A*44	\c:1552136807*51\$IIVWT,023,L,02.72,N,01.40,M,,*29
\c:1552136684*54\$GPGLL,3247.2155,N,07954.5642,W,130513.000,A,A*45	\c:1552136809*5F\$IIVWT,014,L,02.68,N,01.38,M,,*29
\c:1552136685*55\$GPGLL,3247.222,N,07954.564,W,130513,A,A*58	\c:1552136811*56\$IIVWT,014,L,02.72,N,01.40,M,,*2D
\c:1552136685*55\$GPGLL,3247.2155,N,07954.5642,W,130514.000,A,A*42	\c:1552136813*54\$IIVWT,013,L,02.64,N,01.36,M,,*2C
\c:1552136686*56\$GPGLL,3247.2155,N,07954.5642,W,130515.000,A,A*43	\c:1552136815*52\$IIVWT,038,L,02.64,N,01.36,M,,*25
\c:1552136687*57\$GPGLL,3247.222,N,07954.564,W,130515,A,A*5E	\c:1552136817*50\$IIVWT,020,L,02.62,N,01.35,M,,*29
\c:1552136687*57\$GPGLL,3247.2155,N,07954.5642,W,130516.000,A,A*40	\c:1552136819*5E\$IIVWT,036,L,02.72,N,01.40,M,,*2D
\c:1552136688*58\$GPGLL,3247.2155,N,07954.5642,W,130517.000,A,A*41	\c:1552136821*55\$IIVWT,036,L,02.52,N,01.30,M,,*28
\c:1552136689*59\$GPGLL,3247.222,N,07954.564,W,130517,A,A*5C	\c:1552136823*57\$IIVWT,040,L,02.50,N,01.29,M,,*23
\c:1552136690*51\$GPGLL,3247.2155,N,07954.5642,W,130518.000,A,A*4E	\c:1552136825*51\$IIVWT,063,L,02.19,N,01.13,M,,*26
\c:1552136690*51\$GPGLL,3247.2155,N,07954.5642,W,130519.000,A,A*4F	\c:1552136827*53\$IIVWT,056,L,02.07,N,01.07,M,,*2A
\c:1552136691*50\$GPGLL,3247.222,N,07954.564,W,130519,A,A*52	\c:1552136829*5D\$IIVWT,050,L,02.17,N,01.12,M,,*29
\c:1552136691*50\$GPGLL,3247.2155,N,07954.5642,W,130520.000,A,A*45	\c:1552136831*54\$IIVWT,047,L,02.21,N,01.14,M,,*2C
\c:1552136692*53\$GPGLL,3247.2155,N,07954.5642,W,130521.000,A,A*44	\c:1552136833*56\$IIVWT,039,L,02.35,N,01.21,M,,*26
\c:1552136695*54\$GPGLL,3247.222,N,07954.564,W,130521,A,A*59	\c:1552136835*50\$IIVWT,053,L,02.42,N,01.25,M,,*2E
\c:1552136695*54\$GPGLL,3247.2155,N,07954.5642,W,130522.000,A,A*47	\c:1552136837*52\$IIVWT,050,L,02.56,N,01.32,M,,*2E
\c:1552136695*54\$GPGLL,3247.2155,N,07954.5642,W,130523.000,A,A*46	\c:1552136839*5C\$IIVWT,047,L,02.39,N,01.23,M,,*21
\c:1552136695*54\$GPGLL,3247.222,N,07954.564,W,130523,A,A*5B	\c:1552136841*53\$IIVWT,046,L,02.42,N,01.25,M,,*2A
\c:1552136695*54\$GPGLL,3247.2155,N,07954.5642,W,130524.000,A,A*41	\c:1552136843*51\$IIVWT,044,L,02.29,N,01.18,M,,*2B
\c:1552136696*57\$GPGLL,3247.2155,N,07954.5642,W,130525.000,A,A*40	\c:1552136845*57\$IIVWT,044,L,02.42,N,01.25,M,,*28
\c:1552136697*56\$GPGLL,3247.221,N,07954.564,W,130525,A,A*5E	\c:1552136848*5A\$IIVWT,038,L,02.64,N,01.36,M,,*25
\c:1552136697*56\$GPGLL,3247.2155,N,07954.5642,W,130526.000,A,A*43	\c:1552136850*53\$IIVWT,056,L,02.44,N,01.26,M,,*2E
\c:1552136698*59\$GPGLL,3247.2155,N,07954.5642,W,130527.000,A,A*42	\c:1552136852*51\$IIVWT,046,L,02.31,N,01.19,M,,*21
\c:1552136699*58\$GPGLL,3247.221,N,07954.564,W,130527,A,A*5C	\c:1552136854*57\$IIVWT,029,L,02.23,N,01.15,M,,*27
\c:1552136699*58\$GPGLL,3247.2155,N,07954.5642,W,130528.000,A,A*4D	\c:1552136856*55\$IIVWT,038,L,02.33,N,01.20,M,,*20
\c:1552136700*59\$GPGLL,3247.2155,N,07954.5642,W,130529.000,A,A*4C	\c:1552136858*5B\$IIVWT,045,L,01.92,N,00.99,M,,*21
\c:1552136701*58\$GPGLL,3247.221,N,07954.564,W,130529,A,A*52	\c:1552136860*50\$IIVWT,048,L,02.13,N,01.10,M,,*26
\c:1552136701*58\$GPGLL,3247.2155,N,07954.5642,W,130530.000,A,A*44	\c:1552136862*52\$IIVWT,038,L,01.92,N,00.99,M,,*2B
\c:1552136702*5B\$GPGLL,3247.2155,N,07954.5642,W,130531.000,A,A*45	\c:1552136864*54\$IIVWT,044,L,02.02,N,01.04,M,,*2F
\c:1552136703*5A\$GPGLL,3247.221,N,07954.564,W,130531,A,A*5B	\c:1552136866*56\$IIVWT,034,L,02.00,N,01.03,M,,*2D
\c:1552136703*5A\$GPGLL,3247.2155,N,07954.5642,W,130532.000,A,A*46	\c:1552136868*58\$IIVWT,059,L,02.04,N,01.05,M,,*24
\c:1552136704*5D\$GPGLL,3247.2155,N,07954.5642,W,130533.000,A,A*47	\c:1552136870*51\$IIVWT,048,L,01.96,N,01.01,M,,*28
\c:1552136705*5C\$GPGLL,3247.222,N,07954.564,W,130533,A,A*5A	\c:1552136872*53\$IIVWT,043,L,02.06,N,01.06,M,,*2E
\c:1552136705*5C\$GPGLL,3247.2155,N,07954.5644,W,130534.000,A,A*46	\c:1552136874*55\$IIVWT,048,L,02.29,N,01.18,M,,*27
\c:1552136706*5F\$GPGLL,3247.2156,N,07954.5644,W,130535.000,A,A*44	\c:1552136876*57\$IIVWT,052,L,01.94,N,01.00,M,,*20
\c:1552136707*5E\$GPGLL,3247.222,N,07954.564,W,130535,A,A*5C	\c:1552136878*59\$IIVWT,052,L,02.21,N,01.14,M,,*28
\c:1552136707*5E\$GPGLL,3247.2156,N,07954.5644,W,130536.000,A,A*47	\c:1552136880*5E\$IIVWT,063,L,01.94,N,01.00,M,,*22
\c:1552136708*51\$GPGLL,3247.2156,N,07954.5643,W,130537.000,A,A*41	\c:1552136882*5C\$IIVWT,051,L,02.13,N,01.10,M,,*2E
\c:1552136709*50\$GPGLL,3247.2157,N,07954.5643,W,130538.000,A,A*4F	\c:1552136884*5A\$IIVWT,032,L,02.09,N,01.08,M,,*29
\c:1552136709*50\$GPGLL,3247.222,N,07954.564,W,130537,A,A*5E	\c:1552136886*58\$IIVWT,028,L,02.31,N,01.19,M,,*29
\c:1552136710*58\$GPGLL,3247.2157,N,07954.5643,W,130539.000,A,A*4E	\c:1552136889*57\$IIVWT,017,L,02.31,N,01.19,M,,*25
\c:1552136711*59\$GPGLL,3247.2156,N,07954.5643,W,130540.000,A,A*41	\c:1552136891*5E\$IIVWT,046,L,02.21,N,01.14,M,,*2D
\c:1552136711*59\$GPGLL,3247.222,N,07954.564,W,130539,A,A*50	\c:1552136893*5C\$IIVWT,045,L,02.23,N,01.15,M,,*2D
\c:1552136712*5A\$GPGLL,3247.2156,N,07954.5644,W,130541.000,A,A*47	\c:1552136895*5A\$IIVWT,052,L,01.86,N,00.96,M,,*2D
\c:1552136713*5B\$GPGLL,3247.2156,N,07954.5643,W,130542.000,A,A*43	\c:1552136897*58\$IIVWT,046,L,02.02,N,01.04,M,,*2D
\c:1552136713*5B\$GPGLL,3247.222,N,07954.564,W,130541,A,A*5F	\c:1552136899*56\$IIVWT,056,L,01.88,N,00.97,M,,*26
\c:1552136714*5C\$GPGLL,3247.2156,N,07954.5643,W,130543.000,A,A*42	\c:1552136901*56\$IIVWT,054,L,02.13,N,01.10,M,,*2B
\c:1552136715*5D\$GPGLL,3247.2156,N,07954.5643,W,130544.000,A,A*45	\c:1552136903*54\$IIVWT,011,L,02.13,N,01.10,M,,*2A
\c:1552136715*5D\$GPGLL,3247.222,N,07954.564,W,130543,A,A*5D	\c:1552136905*52\$IIVWT,059,L,01.98,N,01.02,M,,*25
\c:1552136716*5E\$GPGLL,3247.2156,N,07954.5643,W,130545.000,A,A*44	\c:1552136907*50\$IIVWT,042,L,01.73,N,00.89,M,,*28
\c:1552136717*5F\$GPGLL,3247.2156,N,07954.5643,W,130546.000,A,A*47	\c:1552136909*5E\$IIVWT,032,L,01.74,N,00.90,M,,*20
\c:1552136717*5F\$GPGLL,3247.222,N,07954.564,W,130545,A,A*5B	\c:1552136911*57\$IIVWT,022,L,01.88,N,00.97,M,,*25
\c:1552136718*50\$GPGLL,3247.2156,N,07954.5643,W,130547.000,A,A*46	\c:1552136913*55\$IIVWT,014,L,02.25,N,01.16,M,,*2C
\c:1552136719*51\$GPGLL,3247.2156,N,07954.5643,W,130548.000,A,A*49	\c:1552136915*53\$IIVWT,033,L,02.39,N,01.23,M,,*22
\c:1552136719*51\$GPGLL,3247.222,N,07954.564,W,130547,A,A*59	\c:1552136917*51\$IIVWT,011,L,02.35,N,01.21,M,,*2C
\c:1552136720*5B\$GPGLL,3247.2156,N,07954.5643,W,130549.000,A,A*48	\c:1552136919*5F\$IIVWT,031,L,02.29,N,01.18,M,,*29
\c:1552136721*5A\$GPGLL,3247.2156,N,07954.5643,W,130550.000,A,A*40	\c:1552136921*54\$IIVWT,008,L,02.25,N,01.16,M,,*21
\c:1552136721*5A\$GPGLL,3247.222,N,07954.564,W,130549,A,A*57	\c:1552136923*56\$IIVWT,061,L,02.21,N,01.14,M,,*28
\c:1552136722*59\$GPGLL,3247.2156,N,07954.5643,W,130551.000,A,A*41	\c:1552136925*50\$IIVWT,064,L,01.51,N,00.78,M,,*22
\c:1552136723*58\$GPGLL,3247.2156,N,07954.5643,W,130552.000,A,A*42	\c:1552136927*52\$IIVWT,063,L,01.43,N,00.74,M,,*2A
\c:1552136723*58\$GPGLL,3247.222,N,07954.564,W,130551,A,A*5E	\c:1552136929*5C\$IIVWT,011,L,01.78,N,00.92,M,,*2F
\c:1552136724*5F\$GPGLL,3247.2156,N,07954.5643,W,130553.000,A,A*43	\c:1552136932*56\$IIVWT,038,L,02.15,N,01.11,M,,*26
\c:1552136725*5E\$GPGLL,3247.2156,N,07954.5644,W,130554.000,A,A*43	\c:1552136934*50\$IIVWT,044,L,02.31,N,01.19,M,,*23
\c:1552136725*5E\$GPGLL,3247.222,N,07954.563,W,130553,A,A*5B	\c:1552136936*52\$IIVWT,053,L,02.37,N,01.22,M,,*2B
\c:1552136726*5D\$GPGLL,3247.2156,N,07954.5644,W,130555.000,A,A*42	\c:1552136938*5C\$IIVWT,041,L,02.21,N,01.14,M,,*2A
\c:1552136727*5C\$GPGLL,3247.2156,N,07954.5644,W,130556.000,A,A*41	\c:1552136940*53\$IIVWT,009,L,02.39,N,01.23,M,,*2B
\c:1552136728*53\$GPGLL,3247.222,N,07954.563,W,130556,A,A*5E	\c:1552136942*51\$IIVWT,012,L,02.48,N,01.28,M,,*2C
\c:1552136728*53\$GPGLL,3247.2156,N,07954.5644,W,130557.000,A,A*40	\c:1552136944*57\$IIVWT,020,R,02.44,N,01.26,M,,*31
\c:1552136729*52\$GPGLL,3247.2156,N,07954.5644,W,130558.000,A,A*4F	\c:1552136946*55\$IIVWT,029,L,02.48,N,01.28,M,,*24
\c:1552136730*5A\$GPGLL,3247.222,N,07954.563,W,130558,A,A*50	\c:1552136948*5B\$IIVWT,004,L,02.39,N,01.23,M,,*26
\c:1552136730*5A\$GPGLL,3247.2156,N,07954.5644,W,130559.000,A,A*4E	\c:1552136950*52\$IIVWT,042,L,02.31,N,01.19,M,,*25
\c:1552136731*5B\$GPGLL,3247.2156,N,07954.5644,W,130600.000,A,A*41	\c:1552136952*50\$IIVWT,018,R,02.54,N,01.31,M,,*3D
\c:1552136732*58\$GPGLL,3247.222,N,07954.563,W,130600,A,A*5E	\c:1552136954*56\$IIVWT,031,L,02.39,N,01.23,M,,*20
\c:1552136732*58\$GPGLL,3247.2156,N,07954.5644,W,130601.000,A,A*40	\c:1552136956*54\$IIVWT,001,R,02.52,N,01.30,M,,*32
\c:1552136733*59\$GPGLL,3247.2156,N,07954.5644,W,130602.000,A,A*43	\c:1552136958*5A\$IIVWT,031,L,02.54,N,01.31,M,,*28
\c:1552136734*5E\$GPGLL,3247.222,N,07954.563,W,130602,A,A*5C	\c:1552136960*51\$IIVWT,030,L,02.48,N,01.28,M,,*2C
\c:1552136734*5E\$GPGLL,3247.2156,N,07954.5644,W,130603.000,A,A*42	\c:1552136962*53\$IIVWT,033,L,02.42,N,01.25,M,,*28
\c:1552136735*5F\$GPGLL,3247.2156,N,07954.5644,W,130604.000,A,A*45	\c:1552136964*55\$IIVWT,035,L,02.42,N,01.25,M,,*2E
\c:1552136736*5C\$GPGLL,3247.222,N,07954.563,W,130604,A,A*5A	\c:1552136966*57\$IIVWT,035,L,02.48,N,01.28,M,,*29
\c:1552136736*5C\$GPGLL,3247.2156,N,07954.5644,W,130605.000,A,A*44	\c:1552136968*59\$IIVWT,038,L,02.58,N,01.33,M,,*2F
\c:1552136737*5D\$GPGLL,3247.2156,N,07954.5644,W,130606.000,A,A*47	\c:1552136970*50\$IIVWT,042,L,02.44,N,01.26,M,,*2B
\c:1552136738*52\$GPGLL,3247.222,N,07954.563,W,130606,A,A*58	\c:1552136972*52\$IIVWT,036,L,02.44,N,01.26,M,,*28
\c:1552136738*52\$GPGLL,3247.2156,N,07954.5644,W,130607.000,A,A*46	\c:1552136975*55\$IIVWT,034,L,02.39,N,01.23,M,,*25
\c:1552136739*53\$GPGLL,3247.2156,N,07954.5644,W,130608.000,A,A*49	\c:1552136977*57\$IIVWT,012,L,02.52,N,01.30,M,,*2E
\c:1552136740*5D\$GPGLL,3247.222,N,07954.563,W,130608,A,A*56	\c:1552136979*59\$IIVWT,007,L,02.42,N,01.25,M,,*2F
\c:1552136740*5D\$GPGLL,3247.2155,N,07954.5644,W,130609.000,A,A*4B	\c:1552136981*5E\$IIVWT,030,L,02.52,N,01.30,M,,*2E
\c:1552136741*5C\$GPGLL,3247.2155,N,07954.5644,W,130610.000,A,A*43	\c:1552136983*5C\$IIVWT,017,L,02.58,N,01.33,M,,*22
\c:1552136742*5F\$GPGLL,3247.222,N,07954.563,W,130610,A,A*5F	\c:1552136985*5A\$IIVWT,012,L,02.72,N,01.40,M,,*2B
\c:1552136742*5F\$GPGLL,3247.2155,N,07954.5644,W,130611.000,A,A*42	\c:1552136987*58\$IIVWT,015,L,02.81,N,01.45,M,,*25
\c:1552136743*5E\$GPGLL,3247.2155,N,07954.5644,W,130612.000,A,A*41	\c:1552136989*56\$IIVWT,027,L,02.76,N,01.42,M,,*2B
\c:1552136744*59\$GPGLL,3247.222,N,07954.563,W,130612,A,A*5D	\c:1552136991*5F\$IIVWT,011,L,02.62,N,01.35,M,,*2B
\c:1552136744*59\$GPGLL,3247.2156,N,07954.5644,W,130613.000,A,A*43	\c:1552136993*5D\$IIVWT,024,L,02.52,N,01.30,M,,*2B
\c:1552136745*58\$GPGLL,3247.2156,N,07954.5644,W,130614.000,A,A*44	\c:1552136995*5B\$IIVWT,034,L,02.54,N,01.31,M,,*2D
\c:1552136746*5B\$GPGLL,3247.222,N,07954.563,W,130614,A,A*5B	\c:1552136997*59\$IIVWT,034,L,02.29,N,01.18,M,,*2C
\c:1552136746*5B\$GPGLL,3247.2156,N,07954.5644,W,130615.000,A,A*45	\c:1552136999*57\$IIVWT,046,L,02.17,N,01.12,M,,*2E
\c:1552136747*5A\$GPGLL,3247.2156,N,07954.5644,W,130616.000,A,A*46	\c:1552137001*5E\$IIVWT,043,L,01.88,N,00.97,M,,*22
\c:1552136748*55\$GPGLL,3247.222,N,07954.563,W,130616,A,A*59	\c:1552137003*5C\$IIVWT,014,L,02.29,N,01.18,M,,*2E
\c:1552136748*55\$GPGLL,3247.2156,N,07954.5644,W,130617.000,A,A*47	\c:1552137005*5A\$IIVWT,002,L,01.98,N,01.02,M,,*2B
\c:1552136749*54\$GPGLL,3247.2156,N,07954.5644,W,130618.000,A,A*48	\c:1552137007*58\$IIVWT,069,L,02.02,N,01.04,M,,*20
\c:1552136750*5C\$GPGLL,3247.222,N,07954.563,W,130618,A,A*57	\c:1552137009*56\$IIVWT,067,L,01.71,N,00.88,M,,*2C
\c:1552136750*5C\$GPGLL,3247.2156,N,07954.5644,W,130619.000,A,A*49	\c:1552137011*5F\$IIVWT,046,L,01.65,N,00.85,M,,*27
\c:1552136751*5D\$GPGLL,3247.2156,N,07954.5644,W,130620.000,A,A*43	\c:1552137013*5D\$IIVWT,035,L,01.74,N,00.90,M,,*27
\c:1552136752*5E\$GPGLL,3247.2156,N,07954.5644,W,130621.000,A,A*42	\c:1552137015*5B\$IIVWT,033,L,01.78,N,00.92,M,,*2F
\c:1552136752*5E\$GPGLL,3247.222,N,07954.563,W,130620,A,A*5C	\c:1552137018*56\$IIVWT,022,L,01.86,N,00.96,M,,*2A
\c:1552136753*5F\$GPGLL,3247.2156,N,07954.5644,W,130622.000,A,A*41	\c:1552137020*5D\$IIVWT,026,L,01.86,N,00.96,M,,*2E
\c:1552136754*58\$GPGLL,3247.2156,N,07954.5644,W,130623.000,A,A*40	\c:1552137022*5F\$IIVWT,034,L,01.88,N,00.97,M,,*22
\c:1552136754*58\$GPGLL,3247.222,N,07954.563,W,130622,A,A*5E	\c:1552137024*59\$IIVWT,034,L,01.88,N,00.97,M,,*22
\c:1552136755*59\$GPGLL,3247.2156,N,07954.5644,W,130624.000,A,A*47	\c:1552137026*5B\$IIVWT,044,L,01.88,N,00.97,M,,*25
\c:1552136756*5A\$GPGLL,3247.2156,N,07954.5644,W,130625.000,A,A*46	\c:1552137028*55\$IIVWT,049,L,01.88,N,00.97,M,,*28
\c:1552136756*5A\$GPGLL,3247.222,N,07954.563,W,130624,A,A*58	\c:1552137030*5C\$IIVWT,051,L,01.71,N,00.88,M,,*29
\c:1552136757*5B\$GPGLL,3247.2156,N,07954.5644,W,130626.000,A,A*45	\c:1552137032*5E\$IIVWT,049,L,01.74,N,00.90,M,,*2C
\c:1552136758*54\$GPGLL,3247.2156,N,07954.5644,W,130627.000,A,A*44	\c:1552137034*58\$IIVWT,038,L,01.74,N,00.90,M,,*2A
\c:1552136758*54\$GPGLL,3247.222,N,07954.563,W,130626,A,A*5A	\c:1552137036*5A\$IIVWT,045,L,01.88,N,00.97,M,,*24
\c:1552136759*55\$GPGLL,3247.2156,N,07954.5644,W,130628.000,A,A*4B	\c:1552137038*54\$IIVWT,045,L,01.80,N,00.93,M,,*28
\c:1552136760*5F\$GPGLL,3247.2157,N,07954.5644,W,130629.000,A,A*4B	\c:1552137040*5B\$IIVWT,038,L,01.92,N,00.99,M,,*2B
\c:1552136760*5F\$GPGLL,3247.222,N,07954.563,W,130628,A,A*54	\c:1552137042*59\$IIVWT,046,L,01.86,N,00.96,M,,*28
\c:1552136761*5E\$GPGLL,3247.2157,N,07954.5644,W,130630.000,A,A*43	\c:1552137044*5F\$IIVWT,045,L,01.88,N,00.97,M,,*24
\c:1552136762*5D\$GPGLL,3247.2157,N,07954.5644,W,130631.000,A,A*42	\c:1552137046*5D\$IIVWT,043,L,02.00,N,01.03,M,,*2D
\c:1552136762*5D\$GPGLL,3247.222,N,07954.563,W,130630,A,A*5D	\c:1552137048*53\$IIVWT,050,L,01.88,N,00.97,M,,*20
\c:1552136763*5C\$GPGLL,3247.2157,N,07954.5644,W,130632.000,A,A*41	\c:1552137050*5A\$IIVWT,041,L,01.74,N,00.90,M,,*24
\c:1552136764*5B\$GPGLL,3247.2157,N,07954.5644,W,130633.000,A,A*40	\c:1552137052*58\$IIVWT,034,L,01.74,N,00.90,M,,*26
\c:1552136764*5B\$GPGLL,3247.222,N,07954.563,W,130632,A,A*5F	\c:1552137054*5E\$IIVWT,017,L,01.76,N,00.91,M,,*24
\c:1552136765*5A\$GPGLL,3247.2157,N,07954.5644,W,130634.000,A,A*47	\c:1552137056*5C\$IIVWT,042,L,01.63,N,00.84,M,,*24
\c:1552136766*59\$GPGLL,3247.2157,N,07954.5644,W,130635.000,A,A*46	\c:1552137058*52\$IIVWT,043,L,01.57,N,00.81,M,,*27
\c:1552136766*59\$GPGLL,3247.222,N,07954.563,W,130634,A,A*59	\c:1552137061*58\$IIVWT,042,L,01.59,N,00.82,M,,*2B
\c:1552136767*58\$GPGLL,3247.2157,N,07954.5644,W,130636.000,A,A*45	\c:1552137063*5A\$IIVWT,043,L,01.59,N,00.82,M,,*2A
\c:1552136768*57\$GPGLL,3247.2157,N,07954.5644,W,130637.000,A,A*44	\c:1552137065*5C\$IIVWT,030,L,01.84,N,00.95,M,,*28
\c:1552136768*57\$GPGLL,3247.222,N,07954.563,W,130636,A,A*5B	\c:1552137067*5E\$IIVWT,024,L,01.82,N,00.94,M,,*2A
\c:1552136769*56\$GPGLL,3247.2157,N,07954.5644,W,130638.000,A,A*4B	\c:1552137069*50\$IIVWT,026,L,01.96,N,01.01,M,,*20
\c:1552136770*5E\$GPGLL,3247.2157,N,07954.5644,W,130639.000,A,A*4A	\c:1552137071*59\$IIVWT,022,L,02.06,N,01.06,M,,*29
\c:1552136771*5F\$GPGLL,3247.222,N,07954.563,W,130638,A,A*55	\c:1552137073*5B\$IIVWT,039,L,02.19,N,01.13,M,,*29
\c:1552136772*5C\$GPGLL,3247.2157,N,07954.5644,W,130640.000,A,A*44	\c:1552137075*5D\$IIVWT,021,L,02.06,N,01.06,M,,*2A
\c:1552136772*5C\$GPGLL,3247.2157,N,07954.5644,W,130641.000,A,A*45	\c:1552137077*5F\$IIVWT,002,R,02.15,N,01.11,M,,*31
\c:1552136773*5D\$GPGLL,3247.222,N,07954.563,W,130640,A,A*5A	\c:1552137079*51\$IIVWT,014,L,02.11,N,01.09,M,,*25
\c:1552136773*5D\$GPGLL,3247.2157,N,07954.5644,W,130642.000,A,A*46	\c:1552137081*56\$IIVWT,009,L,01.92,N,00.99,M,,*29
\c:1552136774*5A\$GPGLL,3247.2157,N,07954.5644,W,130643.000,A,A*47	\c:1552137083*54\$IIVWT,037,L,01.86,N,00.96,M,,*2E
\c:1552136775*5B\$GPGLL,3247.222,N,07954.563,W,130642,A,A*58	\c:1552137085*52\$IIVWT,028,L,01.82,N,00.94,M,,*26
\c:1552136775*5B\$GPGLL,3247.2157,N,07954.5644,W,130644.000,A,A*40	\c:1552137087*50\$IIVWT,037,L,01.84,N,00.95,M,,*2F
\c:1552136776*58\$GPGLL,3247.2157,N,07954.5644,W,130645.000,A,A*41	\c:1552137089*5E\$IIVWT,045,L,02.13,N,01.10,M,,*2B
\c:1552136777*59\$GPGLL,3247.222,N,07954.563,W,130644,A,A*5E	\c:1552137091*57\$IIVWT,034,L,01.88,N,00.97,M,,*22
\c:1552136777*59\$GPGLL,3247.2157,N,07954.5644,W,130646.000,A,A*42	\c:1552137093*55\$IIVWT,023,L,01.88,N,00.97,M,,*24
\c:1552136778*56\$GPGLL,3247.2157,N,07954.5644,W,130647.000,A,A*43	\c:1552137095*53\$IIVWT,010,L,01.82,N,00.94,M,,*2D
\c:1552136779*57\$GPGLL,3247.222,N,07954.563,W,130646,A,A*5C	\c:1552137097*51\$IIVWT,046,L,01.88,N,00.97,M,,*27
\c:1552136779*57\$GPGLL,3247.2157,N,07954.5644,W,130648.000,A,A*4C	\c:1552137099*5F\$IIVWT,045,L,01.90,N,00.98,M,,*22
\c:1552136780*51\$GPGLL,3247.2157,N,07954.5644,W,130649.000,A,A*4D	\c:1552137101*5F\$IIVWT,057,L,01.84,N,00.95,M,,*29
\c:1552136781*50\$GPGLL,3247.222,N,07954.563,W,130648,A,A*52	\c:1552137104*5A\$IIVWT,047,L,01.74,N,00.90,M,,*22
\c:1552136782*53\$GPGLL,3247.2157,N,07954.5644,W,130650.000,A,A*45	\c:1552137106*58\$IIVWT,039,L,01.82,N,00.94,M,,*26
\c:1552136782*53\$GPGLL,3247.2157,N,07954.5644,W,130651.000,A,A*44	\c:1552137108*56\$IIVWT,037,L,01.76,N,00.91,M,,*26
\c:1552136783*52\$GPGLL,3247.222,N,07954.563,W,130650,A,A*5B	\c:1552137110*5F\$IIVWT,040,L,01.73,N,00.89,M,,*2A
\c:1552136783*52\$GPGLL,3247.2157,N,07954.5644,W,130652.000,A,A*47	\c:1552137112*5D\$IIVWT,042,L,01.61,N,00.83,M,,*21
\c:1552136784*55\$GPGLL,3247.2157,N,07954.5644,W,130653.000,A,A*46	\c:1552137114*5B\$IIVWT,044,L,01.55,N,00.80,M,,*23
\c:1552136785*54\$GPGLL,3247.222,N,07954.563,W,130652,A,A*59	\c:1552137116*59\$IIVWT,042,L,01.63,N,00.84,M,,*24
\c:1552136785*54\$GPGLL,3247.2156,N,07954.5644,W,130654.000,A,A*40	\c:1552137118*57\$IIVWT,026,L,01.71,N,00.88,M,,*29
\c:1552136786*57\$GPGLL,3247.2156,N,07954.5644,W,130655.000,A,A*41	\c:1552137120*5C\$IIVWT,030,L,01.69,N,00.87,M,,*28
\c:1552136787*56\$GPGLL,3247.222,N,07954.563,W,130654,A,A*5F	\c:1552137122*5E\$IIVWT,014,L,01.65,N,00.85,M,,*20
\c:1552136787*56\$GPGLL,3247.2156,N,07954.5644,W,130656.000,A,A*42	\c:1552137124*58\$IIVWT,052,L,01.65,N,00.85,M,,*22
\c:1552136788*59\$GPGLL,3247.2156,N,07954.5644,W,130657.000,A,A*43	\c:1552137126*5A\$IIVWT,042,L,01.73,N,00.89,M,,*28
\c:1552136789*58\$GPGLL,3247.222,N,07954.563,W,130656,A,A*5D	\c:1552137128*54\$IIVWT,025,L,01.80,N,00.93,M,,*2E
\c:1552136789*58\$GPGLL,3247.2156,N,07954.5645,W,130658.000,A,A*4D	\c:1552137130*5D\$IIVWT,009,L,01.63,N,00.84,M,,*2B
\c:1552136790*50\$GPGLL,3247.2156,N,07954.5645,W,130659.000,A,A*4C	\c:1552137132*5F\$IIVWT,043,L,01.59,N,00.82,M,,*2A
\c:1552136791*51\$GPGLL,3247.222,N,07954.563,W,130659,A,A*52	\c:1552137134*59\$IIVWT,053,L,01.55,N,00.80,M,,*25
\c:1552136791*51\$GPGLL,3247.2156,N,07954.5645,W,130700.000,A,A*41	\c:1552137136*5B\$IIVWT,062,L,01.34,N,00.69,M,,*27
\c:1552136792*52\$GPGLL,3247.2156,N,07954.5645,W,130701.000,A,A*40	\c:1552137138*55\$IIVWT,062,L,01.38,N,00.71,M,,*22
\c:1552136793*53\$GPGLL,3247.222,N,07954.563,W,130702,A,A*5D	\c:1552137140*5A\$IIVWT,057,L,01.22,N,00.63,M,,*2C
\c:1552136793*53\$GPGLL,3247.2156,N,07954.5645,W,130702.000,A,A*43	\c:1552137142*58\$IIVWT,004,R,01.55,N,00.80,M,,*39
\c:1552136794*54\$GPGLL,3247.2156,N,07954.5645,W,130703.000,A,A*42	\c:1552137144*5E\$IIVWT,022,R,01.49,N,00.77,M,,*38
\c:1552136795*55\$GPGLL,3247.2156,N,07954.5645,W,130704.000,A,A*45	\c:1552137147*5D\$IIVWT,009,R,01.47,N,00.76,M,,*3E
\c:1552136795*55\$GPGLL,3247.222,N,07954.563,W,130704,A,A*5B	\c:1552137149*53\$IIVWT,005,L,01.69,N,00.87,M,,*2E
\c:1552136796*56\$GPGLL,3247.2156,N,07954.5645,W,130705.000,A,A*44	\c:1552137151*5A\$IIVWT,004,L,01.73,N,00.89,M,,*2A
\c:1552136797*57\$GPGLL,3247.2156,N,07954.5645,W,130706.000,A,A*47	\c:1552137153*58\$IIVWT,001,L,01.65,N,00.85,M,,*24
\c:1552136797*57\$GPGLL,3247.222,N,07954.563,W,130706,A,A*59	\c:1552137155*5E\$IIVWT,002,L,01.73,N,00.89,M,,*2C
\c:1552136798*58\$GPGLL,3247.2156,N,07954.5645,W,130707.000,A,A*46	\c:1552137157*5C\$IIVWT,006,L,01.69,N,00.87,M,,*2D
\c:1552136799*59\$GPGLL,3247.2156,N,07954.5645,W,130708.000,A,A*49	\c:1552137159*52\$IIVWT,006,L,01.69,N,00.87,M,,*2D
\c:1552136799*59\$GPGLL,3247.222,N,07954.563,W,130708,A,A*57	\c:1552137161*59\$IIVWT,016,L,01.73,N,00.89,M,,*29
\c:1552136800*56\$GPGLL,3247.2156,N,07954.5645,W,130709.000,A,A*48	\c:1552137163*5B\$IIVWT,021,L,01.74,N,00.90,M,,*22
\c:1552136801*57\$GPGLL,3247.2156,N,07954.5645,W,130710.000,A,A*40	\c:1552137165*5D\$IIVWT,026,L,01.74,N,00.90,M,,*25
\c:1552136801*57\$GPGLL,3247.222,N,07954.563,W,130710,A,A*5E	\c:1552137167*5F\$IIVWT,017,L,01.73,N,00.89,M,,*28
\c:1552136802*54\$GPGLL,3247.2156,N,07954.5645,W,130711.000,A,A*41	\c:1552137169*51\$IIVWT,033,L,01.74,N,00.90,M,,*21
\c:1552136803*55\$GPGLL,3247.2156,N,07954.5645,W,130712.000,A,A*42	\c:1552137171*58\$IIVWT,018,L,01.73,N,00.89,M,,*27
\c:1552136803*55\$GPGLL,3247.221,N,07954.563,W,130712,A,A*5F	\c:1552137173*5A\$IIVWT,012,L,01.86,N,00.96,M,,*29
\c:1552136804*52\$GPGLL,3247.2156,N,07954.5645,W,130713.000,A,A*43	\c:1552137175*5C\$IIVWT,003,L,01.73,N,00.89,M,,*2D
\c:1552136805*53\$GPGLL,3247.2156,N,07954.5645,W,130714.000,A,A*44	\c:1552137177*5E\$IIVWT,020,R,01.73,N,00.89,M,,*32
\c:1552136805*53\$GPGLL,3247.221,N,07954.564,W,130714,A,A*5E	\c:1552137179*50\$IIVWT,007,R,01.69,N,00.87,M,,*32
\c:1552136806*50\$GPGLL,3247.2156,N,07954.5645,W,130715.000,A,A*45	\c:1552137181*57\$IIVWT,019,R,01.74,N,00.90,M,,*37
\c:1552136807*51\$GPGLL,3247.2156,N,07954.5645,W,130716.000,A,A*46	\c:1552137183*55\$IIVWT,008,L,01.74,N,00.90,M,,*29
\c:1552136807*51\$GPGLL,3247.221,N,07954.564,W,130716,A,A*5C	\c:1552137185*53\$IIVWT,015,L,01.73,N,00.89,M,,*2A
\c:1552136808*5E\$GPGLL,3247.2156,N,07954.5645,W,130717.000,A,A*47	\c:1552137187*51\$IIVWT,030,L,01.69,N,00.87,M,,*28
\c:1552136809*5F\$GPGLL,3247.2156,N,07954.5645,W,130718.000,A,A*48	\c:1552137190*57\$IIVWT,030,L,01.65,N,00.85,M,,*26
\c:1552136809*5F\$GPGLL,3247.221,N,07954.564,W,130718,A,A*52	\c:1552137192*55\$IIVWT,039,L,01.65,N,00.85,M,,*2F
\c:1552136810*57\$GPGLL,3247.2156,N,07954.5645,W,130719.000,A,A*49	\c:1552137194*53\$IIVWT,046,L,01.55,N,00.80,M,,*21
\c:1552136811*56\$GPGLL,3247.2156,N,07954.5645,W,130720.000,A,A*43	\c:1552137196*51\$IIVWT,051,L,01.41,N,00.73,M,,*2E
\c:1552136811*56\$GPGLL,3247.221,N,07954.564,W,130720,A,A*59	\c:1552137198*5F\$IIVWT,050,L,01.41,N,00.73,M,,*2F
\c:1552136812*55\$GPGLL,3247.2156,N,07954.5645,W,130721.000,A,A*42	\c:1552137200*5D\$IIVWT,040,L,01.41,N,00.73,M,,*2E
\c:1552136813*54\$GPGLL,3247.2156,N,07954.5645,W,130722.000,A,A*41	\c:1552137202*5F\$IIVWT,042,L,01.32,N,00.68,M,,*22
\c:1552136814*53\$GPGLL,3247.221,N,07954.564,W,130722,A,A*5B	\c:1552137204*59\$IIVWT,043,L,01.32,N,00.68,M,,*23
\c:1552136814*53\$GPGLL,3247.2156,N,07954.5645,W,130723.000,A,A*40	\c:1552137206*5B\$IIVWT,042,L,01.45,N,00.75,M,,*2E
\c:1552136815*52\$GPGLL,3247.2156,N,07954.5645,W,130724.000,A,A*47	\c:1552137208*55\$IIVWT,042,L,01.55,N,00.80,M,,*25
\c:1552136816*51\$GPGLL,3247.221,N,07954.564,W,130724,A,A*5D	\c:1552137210*5C\$IIVWT,046,L,01.49,N,00.77,M,,*24
\c:1552136816*51\$GPGLL,3247.2156,N,07954.5645,W,130725.000,A,A*46	\c:1552137212*5E\$IIVWT,052,L,01.34,N,00.69,M,,*24
\c:1552136817*50\$GPGLL,3247.2156,N,07954.5645,W,130726.000,A,A*45	\c:1552137214*58\$IIVWT,053,L,01.20,N,00.62,M,,*2B
\c:1552136818*5F\$GPGLL,3247.221,N,07954.564,W,130726,A,A*5F	\c:1552137216*5A\$IIVWT,052,L,01.32,N,00.68,M,,*23
\c:1552136818*5F\$GPGLL,3247.2156,N,07954.5645,W,130727.000,A,A*44	\c:1552137218*54\$IIVWT,057,L,01.20,N,00.62,M,,*2F
\c:1552136819*5E\$GPGLL,3247.2156,N,07954.5645,W,130728.000,A,A*4B	\c:1552137220*5F\$IIVWT,055,L,01.22,N,00.63,M,,*2E
\c:1552136820*54\$GPGLL,3247.221,N,07954.564,W,130728,A,A*51	\c:1552137222*5D\$IIVWT,057,L,01.16,N,00.60,M,,*28
\c:1552136820*54\$GPGLL,3247.2156,N,07954.5645,W,130729.000,A,A*4A	\c:1552137224*5B\$IIVWT,057,L,01.16,N,00.60,M,,*28
\c:1552136821*55\$GPGLL,3247.2156,N,07954.5645,W,130730.000,A,A*42	\c:1552137226*59\$IIVWT,065,L,01.04,N,00.54,M,,*2D
\c:1552136822*56\$GPGLL,3247.221,N,07954.564,W,130730,A,A*58	\c:1552137228*57\$IIVWT,065,L,01.04,N,00.54,M,,*2D
\c:1552136822*56\$GPGLL,3247.2156,N,07954.5645,W,130731.000,A,A*43	\c:1552137231*5F\$IIVWT,073,L,00.85,N,00.44,M,,*23
\c:1552136823*57\$GPGLL,3247.2156,N,07954.5645,W,130732.000,A,A*40	\c:1552137233*5D\$IIVWT,073,L,00.85,N,00.44,M,,*23
\c:1552136824*50\$GPGLL,3247.221,N,07954.564,W,130732,A,A*5A	\c:1552137235*5B\$IIVWT,045,R,00.00,N,00.00,M,,*35
\c:1552136824*50\$GPGLL,3247.2157,N,07954.5645,W,130733.000,A,A*40	\c:1552137237*59\$IIVWT,045,R,00.00,N,00.00,M,,*35
\c:1552136825*51\$GPGLL,3247.2156,N,07954.5645,W,130734.000,A,A*46	\c:1552137239*57\$IIVWT,045,R,00.00,N,00.00,M,,*35
\c:1552136826*52\$GPGLL,3247.221,N,07954.564,W,130734,A,A*5C	\c:1552137241*58\$IIVWT,045,R,00.00,N,00.00,M,,*35
\c:1552136826*52\$GPGLL,3247.2156,N,07954.5645,W,130735.000,A,A*47	\c:1552137243*5A\$IIVWT,045,R,00.00,N,00.00,M,,*35
\c:1552136827*53\$GPGLL,3247.2156,N,07954.5645,W,130736.000,A,A*44	\c:1552137245*5C\$IIVWT,045,R,00.00,N,00.00,M,,*35
\c:1552136828*5C\$GPGLL,3247.221,N,07954.564,W,130736,A,A*5E	\c:1552137247*5E\$IIVWT,045,R,00.00,N,00.00,M,,*35
\c:1552136828*5C\$GPGLL,3247.2156,N,07954.5645,W,130737.000,A,A*45	\c:1552137249*50\$IIVWT,163,L,00.75,N,00.39,M,,*26
\c:1552136829*5D\$GPGLL,3247.2156,N,07954.5645,W,130738.000,A,A*4A	\c:1552137251*59\$IIVWT,163,L,00.75,N,00.39,M,,*26
\c:1552136830*55\$GPGLL,3247.221,N,07954.564,W,130738,A,A*50	\c:1552137253*5B\$IIVWT,045,R,00.00,N,00.00,M,,*35
\c:1552136830*55\$GPGLL,3247.2156,N,07954.5645,W,130739.000,A,A*4B	\c:1552137255*5D\$IIVWT,045,R,00.00,N,00.00,M,,*35
\c:1552136831*54\$GPGLL,3247.2157,N,07954.5645,W,130740.000,A,A*44	\c:1552137257*5F\$IIVWT,045,R,00.00,N,00.00,M,,*35
\c:1552136832*57\$GPGLL,3247.221,N,07954.564,W,130740,A,A*5F	\c:1552137259*51\$IIVWT,045,R,00.00,N,00.00,M,,*35
\c:1552136832*57\$GPGLL,3247.2157,N,07954.5645,W,130741.000,A,A*45	\c:1552137261*5A\$IIVWT,045,R,00.00,N,00.00,M,,*35
\c:1552136833*56\$GPGLL,3247.2157,N,07954.5645,W,130742.000,A,A*46	\c:1552137263*58\$IIVWT,045,R,00.00,N,00.00,M,,*35
\c:1552136834*51\$GPGLL,3247.221,N,07954.564,W,130742,A,A*5D	\c:1552137265*5E\$IIVWT,045,R,00.00,N,00.00,M,,*35
\c:1552136834*51\$GPGLL,3247.2157,N,07954.5645,W,130743.000,A,A*47	\c:1552137267*5C\$IIVWT,045,R,00.00,N,00.00,M,,*35
\c:1552136835*50\$GPGLL,3247.2157,N,07954.5645,W,130744.000,A,A*40	\c:1552137269*52\$IIVWT,045,R,00.00,N,00.00,M,,*35
\c:1552136836*53\$GPGLL,3247.221,N,07954.564,W,130744,A,A*5B	\c:1552137271*5B\$IIVWT,045,R,00.00,N,00.00,M,,*35
\c:1552136836*53\$GPGLL,3247.2157,N,07954.5645,W,130745.000,A,A*41	\c:1552137274*5E\$IIVWT,045,R,00.00,N,00.00,M,,*35
\c:1552136837*52\$GPGLL,3247.2157,N,07954.5645,W,130746.000,A,A*42	\c:1552137276*5C\$IIVWT,134,L,00.69,N,00.36,M,,*26
\c:1552136838*5D\$GPGLL,3247.2157,N,07954.5645,W,130747.000,A,A*43	\c:1552137278*52\$IIVWT,134,L,00.69,N,00.36,M,,*26
\c:1552136838*5D\$GPGLL,3247.221,N,07954.564,W,130746,A,A*59	\c:1552137280*55\$IIVWT,045,R,00.00,N,00.00,M,,*35
\c:1552136839*5C\$GPGLL,3247.2157,N,07954.5645,W,130748.000,A,A*4C	\c:1552137282*57\$IIVWT,151,L,00.85,N,00.44,M,,*22
\c:1552136840*52\$GPGLL,3247.2157,N,07954.5645,W,130749.000,A,A*4D	\c:1552137284*51\$IIVWT,172,L,00.91,N,00.47,M,,*25
\c:1552136840*52\$GPGLL,3247.221,N,07954.564,W,130748,A,A*57	\c:1552137286*53\$IIVWT,172,L,00.91,N,00.47,M,,*25
\c:1552136841*53\$GPGLL,3247.2157,N,07954.5645,W,130750.000,A,A*45	\c:1552137288*5D\$IIVWT,045,R,00.00,N,00.00,M,,*35
\c:1552136842*50\$GPGLL,3247.2157,N,07954.5645,W,130751.000,A,A*44	\c:1552137290*54\$IIVWT,045,R,00.00,N,00.00,M,,*35
\c:1552136842*50\$GPGLL,3247.221,N,07954.564,W,130750,A,A*5E	\c:1552137292*56\$IIVWT,158,R,00.85,N,00.44,M,,*35
\c:1552136843*51\$GPGLL,3247.2157,N,07954.5645,W,130752.000,A,A*47	\c:1552137294*50\$IIVWT,158,R,00.85,N,00.44,M,,*35
\c:1552136844*56\$GPGLL,3247.2157,N,07954.5645,W,130753.000,A,A*46	\c:1552137296*52\$IIVWT,137,L,00.99,N,00.51,M,,*2B
\c:1552136844*56\$GPGLL,3247.221,N,07954.564,W,130752,A,A*5C	\c:1552137298*5C\$IIVWT,137,L,00.99,N,00.51,M,,*2B
\c:1552136845*57\$GPGLL,3247.2157,N,07954.5645,W,130754.000,A,A*41	\c:1552137300*5C\$IIVWT,130,L,00.99,N,00.51,M,,*2C
\c:1552136846*54\$GPGLL,3247.2157,N,07954.5645,W,130755.000,A,A*40	\c:1552137302*5E\$IIVWT,130,L,00.99,N,00.51,M,,*2C
\c:1552136846*54\$GPGLL,3247.221,N,07954.564,W,130754,A,A*5A	\c:1552137304*58\$IIVWT,045,R,00.00,N,00.00,M,,*35
\c:1552136847*55\$GPGLL,3247.2157,N,07954.5645,W,130756.000,A,A*43	\c:1552137306*5A\$IIVWT,097,L,00.81,N,00.42,M,,*2B
\c:1552136848*5A\$GPGLL,3247.2157,N,07954.5645,W,130757.000,A,A*42	\c:1552137308*54\$IIVWT,097,L,00.81,N,00.42,M,,*2B
\c:1552136848*5A\$GPGLL,3247.221,N,07954.564,W,130756,A,A*58	\c:1552137310*5D\$IIVWT,045,R,00.00,N,00.00,M,,*35
\c:1552136849*5B\$GPGLL,3247.2157,N,07954.5645,W,130758.000,A,A*4D	\c:1552137312*5F\$IIVWT,115,L,00.77,N,00.40,M,,*2B
\c:1552136850*53\$GPGLL,3247.2157,N,07954.5645,W,130759.000,A,A*4C	\c:1552137314*59\$IIVWT,115,L,00.77,N,00.40,M,,*2B
\c:1552136850*53\$GPGLL,3247.221,N,07954.563,W,130758,A,A*51	\c:1552137317*5A\$IIVWT,119,L,00.85,N,00.44,M,,*2E
\c:1552136851*52\$GPGLL,3247.2157,N,07954.5645,W,130800.000,A,A*4F	\c:1552137319*54\$IIVWT,119,L,00.85,N,00.44,M,,*2E
\c:1552136852*51\$GPGLL,3247.2157,N,07954.5645,W,130801.000,A,A*4E	\c:1552137321*5F\$IIVWT,126,L,00.93,N,00.48,M,,*29
\c:1552136852*51\$GPGLL,3247.222,N,07954.563,W,130800,A,A*50	\c:1552137323*5D\$IIVWT,126,L,00.93,N,00.48,M,,*29
\c:1552136854*57\$GPGLL,3247.2157,N,07954.5645,W,130802.000,A,A*4D	\c:1552137325*5B\$IIVWT,153,L,00.99,N,00.51,M,,*29
\c:1552136854*57\$GPGLL,3247.2157,N,07954.5645,W,130803.000,A,A*4C	\c:1552137327*59\$IIVWT,166,L,01.08,N,00.56,M,,*21
\c:1552136854*57\$GPGLL,3247.222,N,07954.563,W,130802,A,A*52	\c:1552137329*57\$IIVWT,105,R,00.99,N,00.51,M,,*34
\c:1552136855*56\$GPGLL,3247.2157,N,07954.5646,W,130804.000,A,A*48	\c:1552137331*5E\$IIVWT,105,R,00.99,N,00.51,M,,*34
\c:1552136856*55\$GPGLL,3247.2157,N,07954.5646,W,130805.000,A,A*49	\c:1552137333*5C\$IIVWT,045,R,00.00,N,00.00,M,,*35
\c:1552136857*54\$GPGLL,3247.222,N,07954.563,W,130805,A,A*55	\c:1552137335*5A\$IIVWT,045,R,00.00,N,00.00,M,,*35
\c:1552136857*54\$GPGLL,3247.2157,N,07954.5646,W,130806.000,A,A*4A	\c:1552137337*58\$IIVWT,045,R,00.00,N,00.00,M,,*35
\c:1552136858*5B\$GPGLL,3247.2157,N,07954.5646,W,130807.000,A,A*4B	\c:1552137339*56\$IIVWT,045,R,00.00,N,00.00,M,,*35
\c:1552136859*5A\$GPGLL,3247.222,N,07954.563,W,130807,A,A*57	\c:1552137341*59\$IIVWT,045,R,00.00,N,00.00,M,,*35
\c:1552136859*5A\$GPGLL,3247.2157,N,07954.5646,W,130808.000,A,A*44	\c:1552137343*5B\$IIVWT,045,R,00.00,N,00.00,M,,*35
\c:1552136860*50\$GPGLL,3247.2157,N,07954.5646,W,130809.000,A,A*45	\c:1552137345*5D\$IIVWT,045,R,00.00,N,00.00,M,,*35
\c:1552136861*51\$GPGLL,3247.222,N,07954.563,W,130809,A,A*59	\c:1552137347*5F\$IIVWT,045,R,00.00,N,00.00,M,,*35
\c:1552136861*51\$GPGLL,3247.2157,N,07954.5646,W,130810.000,A,A*4D	\c:1552137349*51\$IIVWT,045,R,00.00,N,00.00,M,,*35
\c:1552136862*52\$GPGLL,3247.2157,N,07954.5646,W,130811.000,A,A*4C	\c:1552137351*58\$IIVWT,045,R,00.00,N,00.00,M,,*35
\c:1552136863*53\$GPGLL,3247.222,N,07954.563,W,130811,A,A*50	\c:1552137353*5A\$IIVWT,165,R,00.58,N,00.30,M,,*38
\c:1552136863*53\$GPGLL,3247.2157,N,07954.5646,W,130812.000,A,A*4F	\c:1552137355*5C\$IIVWT,165,R,00.58,N,00.30,M,,*38
\c:1552136864*54\$GPGLL,3247.2157,N,07954.5646,W,130813.000,A,A*4E	\c:1552137357*5E\$IIVWT,045,R,00.00,N,00.00,M,,*35
\c:1552136865*55\$GPGLL,3247.222,N,07954.563,W,130813,A,A*52	\c:1552137360*5A\$IIVWT,045,R,00.00,N,00.00,M,,*35
\c:1552136865*55\$GPGLL,3247.2157,N,07954.5646,W,130814.000,A,A*49	\c:1552137362*58\$IIVWT,045,R,00.00,N,00.00,M,,*35
\c:1552136866*56\$GPGLL,3247.2157,N,07954.5646,W,130815.000,A,A*48	\c:1552137364*5E\$IIVWT,045,R,00.00,N,00.00,M,,*35
\c:1552136867*57\$GPGLL,3247.222,N,07954.563,W,130815,A,A*54	\c:1552137366*5C\$IIVWT,045,R,00.00,N,00.00,M,,*35
\c:1552136867*57\$GPGLL,3247.2157,N,07954.5646,W,130816.000,A,A*4B	\c:1552137368*52\$IIVWT,045,R,00.00,N,00.00,M,,*35
\c:1552136868*58\$GPGLL,3247.2157,N,07954.5646,W,130817.000,A,A*4A	\c:1552137370*5B\$IIVWT,045,R,00.00,N,00.00,M,,*35
\c:1552136869*59\$GPGLL,3247.222,N,07954.563,W,130817,A,A*56	\c:1552137372*59\$IIVWT,045,R,00.00,N,00.00,M,,*35
\c:1552136869*59\$GPGLL,3247.2157,N,07954.5646,W,130818.000,A,A*45	\c:1552137374*5F\$IIVWT,048,R,00.60,N,00.31,M,,*3C
\c:1552136870*51\$GPGLL,3247.2157,N,07954.5646,W,130819.000,A,A*44	\c:1552137376*5D\$IIVWT,048,R,00.60,N,00.31,M,,*3C
\c:1552136871*50\$GPGLL,3247.222,N,07954.563,W,130819,A,A*58	\c:1552137378*53\$IIVWT,045,R,00.00,N,00.00,M,,*35
\c:1552136871*50\$GPGLL,3247.2157,N,07954.5647,W,130820.000,A,A*4F	\c:1552137380*54\$IIVWT,045,R,00.00,N,00.00,M,,*35
\c:1552136872*53\$GPGLL,3247.2157,N,07954.5647,W,130821.000,A,A*4E	\c:1552137382*56\$IIVWT,045,R,00.00,N,00.00,M,,*35
\c:1552136873*52\$GPGLL,3247.222,N,07954.563,W,130821,A,A*53	\c:1552137384*50\$IIVWT,045,R,00.00,N,00.00,M,,*35
\c:1552136873*52\$GPGLL,3247.2157,N,07954.5647,W,130822.000,A,A*4D	\c:1552137386*52\$IIVWT,112,R,00.75,N,00.39,M,,*3E
\c:1552136874*55\$GPGLL,3247.2157,N,07954.5647,W,130823.000,A,A*4C	\c:1552137388*5C\$IIVWT,112,R,00.75,N,00.39,M,,*3E
\c:1552136875*54\$GPGLL,3247.222,N,07954.563,W,130823,A,A*51	\c:1552137390*55\$IIVWT,045,R,00.00,N,00.00,M,,*35
\c:1552136875*54\$GPGLL,3247.2157,N,07954.5647,W,130824.000,A,A*4B	\c:1552137392*57\$IIVWT,045,R,00.00,N,00.00,M,,*35
\c:1552136876*57\$GPGLL,3247.2157,N,07954.5647,W,130825.000,A,A*4A	\c:1552137394*51\$IIVWT,045,R,00.00,N,00.00,M,,*35
\c:1552136877*56\$GPGLL,3247.222,N,07954.563,W,130825,A,A*57	\c:1552137396*53\$IIVWT,045,R,00.00,N,00.00,M,,*35
\c:1552136877*56\$GPGLL,3247.2157,N,07954.5647,W,130826.000,A,A*49	\c:1552137398*5D\$IIVWT,045,R,00.00,N,00.00,M,,*35
\c:1552136878*59\$GPGLL,3247.2157,N,07954.5647,W,130827.000,A,A*48	\c:1552137400*5B\$IIVWT,045,R,00.00,N,00.00,M,,*35
\c:1552136879*58\$GPGLL,3247.222,N,07954.563,W,130827,A,A*55	\c:1552137403*58\$IIVWT,045,R,00.00,N,00.00,M,,*35
\c:1552136879*58\$GPGLL,3247.2157,N,07954.5647,W,130828.000,A,A*47	\c:1552137405*5E\$IIVWT,045,R,00.00,N,00.00,M,,*35
\c:1552136880*5E\$GPGLL,3247.2157,N,07954.5647,W,130829.000,A,A*46	\c:1552137407*5C\$IIVWT,045,R,00.00,N,00.00,M,,*35
\c:1552136881*5F\$GPGLL,3247.2157,N,07954.5647,W,130830.000,A,A*4E	\c:1552137409*52\$IIVWT,045,R,00.00,N,00.00,M,,*35
\c:1552136881*5F\$GPGLL,3247.222,N,07954.563,W,130829,A,A*5B	\c:1552137411*5B\$IIVWT,045,R,00.00,N,00.00,M,,*35
\c:1552136882*5C\$GPGLL,3247.2157,N,07954.5647,W,130831.000,A,A*4F	\c:1552137413*59\$IIVWT,045,R,00.00,N,00.00,M,,*35
\c:1552136883*5D\$GPGLL,3247.2157,N,07954.5647,W,130832.000,A,A*4C	\c:1552137415*5F\$IIVWT,045,R,00.00,N,00.00,M,,*35
\c:1552136883*5D\$GPGLL,3247.222,N,07954.563,W,130831,A,A*52	\c:1552137417*5D\$IIVWT,045,R,00.00,N,00.00,M,,*35
\c:1552136884*5A\$GPGLL,3247.2157,N,07954.5647,W,130833.000,A,A*4D	\c:1552137419*53\$IIVWT,045,R,00.00,N,00.00,M,,*35
\c:1552136885*5B\$GPGLL,3247.2157,N,07954.5647,W,130834.000,A,A*4A	\c:1552137421*58\$IIVWT,045,R,00.00,N,00.00,M,,*35
\c:1552136885*5B\$GPGLL,3247.222,N,07954.563,W,130833,A,A*50	\c:1552137423*5A\$IIVWT,045,R,00.00,N,00.00,M,,*35
\c:1552136886*58\$GPGLL,3247.2157,N,07954.5647,W,130835.000,A,A*4B	\c:1552137425*5C\$IIVWT,045,R,00.00,N,00.00,M,,*35
\c:1552136887*59\$GPGLL,3247.2157,N,07954.5647,W,130836.000,A,A*48	\c:1552137427*5E\$IIVWT,045,R,00.00,N,00.00,M,,*35
\c:1552136887*59\$GPGLL,3247.222,N,07954.563,W,130835,A,A*56	\c:1552137429*50\$IIVWT,045,R,00.00,N,00.00,M,,*35
\c:1552136888*56\$GPGLL,3247.2157,N,07954.5647,W,130837.000,A,A*49	\c:1552137431*59\$IIVWT,088,R,00.60,N,00.31,M,,*30
\c:1552136889*57\$GPGLL,3247.2157,N,07954.5647,W,130838.000,A,A*46	\c:1552137433*5B\$IIVWT,088,R,00.60,N,00.31,M,,*30
\c:1552136889*57\$GPGLL,3247.222,N,07954.563,W,130837,A,A*54	\c:1552137435*5D\$IIVWT,045,R,00.00,N,00.00,M,,*35
\c:1552136890*5F\$GPGLL,3247.2157,N,07954.5647,W,130839.000,A,A*47	\c:1552137437*5F\$IIVWT,045,R,00.00,N,00.00,M,,*35
\c:1552136891*5E\$GPGLL,3247.2157,N,07954.5647,W,130840.000,A,A*49	\c:1552137439*51\$IIVWT,045,R,00.00,N,00.00,M,,*35
\c:1552136891*5E\$GPGLL,3247.222,N,07954.563,W,130839,A,A*5A	\c:1552137441*5E\$IIVWT,045,R,00.00,N,00.00,M,,*35
\c:1552136892*5D\$GPGLL,3247.2157,N,07954.5647,W,130841.000,A,A*48	\c:1552137443*5C\$IIVWT,045,R,00.00,N,00.00,M,,*35
\c:1552136893*5C\$GPGLL,3247.2157,N,07954.5647,W,130842.000,A,A*4B	\c:1552137446*59\$IIVWT,045,R,00.00,N,00.00,M,,*35
\c:1552136893*5C\$GPGLL,3247.222,N,07954.563,W,130841,A,A*55	\c:1552137448*57\$IIVWT,045,R,00.00,N,00.00,M,,*35
\c:1552136895*5A\$GPGLL,3247.2157,N,07954.5647,W,130843.000,A,A*4A	\c:1552137450*5E\$IIVWT,147,R,00.66,N,00.34,M,,*31
\c:1552136895*5A\$GPGLL,3247.2157,N,07954.5647,W,130844.000,A,A*4D	\c:1552137452*5C\$IIVWT,147,R,00.66,N,00.34,M,,*31
\c:1552136895*5A\$GPGLL,3247.222,N,07954.563,W,130843,A,A*57	\c:1552137454*5A\$IIVWT,045,R,00.00,N,00.00,M,,*35
\c:1552136896*59\$GPGLL,3247.2157,N,07954.5647,W,130845.000,A,A*4C	\c:1552137456*58\$IIVWT,045,R,00.00,N,00.00,M,,*35
\c:1552136897*58\$GPGLL,3247.2157,N,07954.5647,W,130846.000,A,A*4F	\c:1552137458*56\$IIVWT,045,R,00.00,N,00.00,M,,*35
\c:1552136897*58\$GPGLL,3247.222,N,07954.563,W,130845,A,A*51	\c:1552137460*5D\$IIVWT,045,R,00.00,N,00.00,M,,*35
\c:1552136898*57\$GPGLL,3247.2157,N,07954.5647,W,130847.000,A,A*4E	\c:1552137462*5F\$IIVWT,045,R,00.00,N,00.00,M,,*35
\c:1552136899*56\$GPGLL,3247.2157,N,07954.5647,W,130848.000,A,A*41	\c:1552137464*59\$IIVWT,045,R,00.00,N,00.00,M,,*35
\c:1552136900*57\$GPGLL,3247.222,N,07954.563,W,130847,A,A*53	\c:1552137466*5B\$IIVWT,045,R,00.00,N,00.00,M,,*35
\c:1552136900*57\$GPGLL,3247.2157,N,07954.5647,W,130849.000,A,A*40	\c:1552137468*55\$IIVWT,045,R,00.00,N,00.00,M,,*35
\c:1552136901*56\$GPGLL,3247.2157,N,07954.5647,W,130850.000,A,A*48	\c:1552137470*5C\$IIVWT,045,R,00.00,N,00.00,M,,*35
\c:1552136902*55\$GPGLL,3247.222,N,07954.563,W,130849,A,A*5D	\c:1552137472*5E\$IIVWT,045,R,00.00,N,00.00,M,,*35
\c:1552136902*55\$GPGLL,3247.2157,N,07954.5647,W,130851.000,A,A*49	\c:1552137474*58\$IIVWT,045,R,00.00,N,00.00,M,,*35
\c:1552136903*54\$GPGLL,3247.2157,N,07954.5647,W,130852.000,A,A*4A	\c:1552137476*5A\$IIVWT,045,R,00.00,N,00.00,M,,*35
\c:1552136904*53\$GPGLL,3247.222,N,07954.563,W,130851,A,A*54	\c:1552137478*54\$IIVWT,045,R,00.00,N,00.00,M,,*35
\c:1552136904*53\$GPGLL,3247.2157,N,07954.5647,W,130853.000,A,A*4B	\c:1552137480*53\$IIVWT,045,R,00.00,N,00.00,M,,*35
\c:1552136905*52\$GPGLL,3247.2157,N,07954.5647,W,130854.000,A,A*4C	\c:1552137482*51\$IIVWT,045,R,00.00,N,00.00,M,,*35
\c:1552136906*51\$GPGLL,3247.222,N,07954.563,W,130853,A,A*56	\c:1552137484*57\$IIVWT,045,R,00.00,N,00.00,M,,*35
\c:1552136906*51\$GPGLL,3247.2157,N,07954.5647,W,130855.000,A,A*4D	\c:1552137486*55\$IIVWT,180,L,00.93,N,00.48,M,,*25
\c:1552136907*50\$GPGLL,3247.2157,N,07954.5647,W,130856.000,A,A*4E	\c:1552137489*5A\$IIVWT,180,L,00.91,N,00.47,M,,*28
\c:1552136908*5F\$GPGLL,3247.222,N,07954.563,W,130855,A,A*50	\c:1552137491*53\$IIVWT,180,L,01.01,N,00.52,M,,*24
\c:1552136908*5F\$GPGLL,3247.2157,N,07954.5647,W,130857.000,A,A*4F	\c:1552137493*51\$IIVWT,180,L,01.53,N,00.79,M,,*2A
\c:1552136909*5E\$GPGLL,3247.2157,N,07954.5648,W,130858.000,A,A*4F	\c:1552137495*57\$IIVWT,180,L,01.73,N,00.89,M,,*27
\c:1552136910*56\$GPGLL,3247.222,N,07954.563,W,130857,A,A*52	\c:1552137497*55\$IIVWT,180,L,02.48,N,01.28,M,,*26
\c:1552136910*56\$GPGLL,3247.2157,N,07954.5648,W,130859.000,A,A*4E	\c:1552137499*5B\$IIVWT,168,R,02.68,N,01.38,M,,*3D
\c:1552136911*57\$GPGLL,3247.2154,N,07954.5647,W,130900.000,A,A*4F	\c:1552137501*5B\$IIVWT,167,R,02.60,N,01.34,M,,*36
\c:1552136912*54\$GPGLL,3247.222,N,07954.563,W,130859,A,A*5C	\c:1552137503*59\$IIVWT,168,R,03.59,N,01.85,M,,*38
\c:1552136912*54\$GPGLL,3247.2152,N,07954.5647,W,130901.000,A,A*48	\c:1552137505*5F\$IIVWT,163,R,03.28,N,01.69,M,,*37
\c:1552136913*55\$GPGLL,3247.2155,N,07954.5646,W,130902.000,A,A*4D	\c:1552137507*5D\$IIVWT,164,R,03.73,N,01.92,M,,*3A
\c:1552136914*52\$GPGLL,3247.222,N,07954.563,W,130901,A,A*50	\c:1552137509*53\$IIVWT,159,R,04.45,N,02.29,M,,*35
\c:1552136914*52\$GPGLL,3247.2156,N,07954.5646,W,130903.000,A,A*4F	\c:1552137511*5A\$IIVWT,161,R,04.97,N,02.56,M,,*39
\c:1552136915*53\$GPGLL,3247.2156,N,07954.5646,W,130904.000,A,A*48	\c:1552137513*58\$IIVWT,167,R,04.97,N,02.56,M,,*3F
\c:1552136916*50\$GPGLL,3247.222,N,07954.563,W,130903,A,A*52	\c:1552137515*5E\$IIVWT,164,R,05.53,N,02.85,M,,*3B
\c:1552136916*50\$GPGLL,3247.2156,N,07954.5646,W,130905.000,A,A*49	\c:1552137517*5C\$IIVWT,167,R,05.79,N,02.98,M,,*3C
\c:1552136917*51\$GPGLL,3247.2156,N,07954.5646,W,130906.000,A,A*4A	\c:1552137519*52\$IIVWT,164,R,05.96,N,03.07,M,,*39
\c:1552136918*5E\$GPGLL,3247.222,N,07954.563,W,130906,A,A*57	\c:1552137521*59\$IIVWT,167,R,06.64,N,03.42,M,,*35
\c:1552136918*5E\$GPGLL,3247.2156,N,07954.5646,W,130907.000,A,A*4B	\c:1552137523*5B\$IIVWT,169,R,06.99,N,03.60,M,,*39
\c:1552136919*5F\$GPGLL,3247.2156,N,07954.5646,W,130908.000,A,A*44	\c:1552137525*5D\$IIVWT,171,R,06.97,N,03.59,M,,*34
\c:1552136920*55\$GPGLL,3247.222,N,07954.563,W,130908,A,A*59	\c:1552137527*5F\$IIVWT,172,R,07.09,N,03.65,M,,*3E
\c:1552136920*55\$GPGLL,3247.2156,N,07954.5646,W,130909.000,A,A*45	\c:1552137530*59\$IIVWT,171,R,07.42,N,03.82,M,,*3B
\c:1552136921*54\$GPGLL,3247.2156,N,07954.5646,W,130910.000,A,A*4D	\c:1552137532*5B\$IIVWT,170,R,08.04,N,04.14,M,,*3F
\c:1552136922*57\$GPGLL,3247.2156,N,07954.5646,W,130911.000,A,A*4C	\c:1552137534*5D\$IIVWT,170,R,08.20,N,04.22,M,,*3C
\c:1552136922*57\$GPGLL,3247.222,N,07954.563,W,130911,A,A*51	\c:1552137536*5F\$IIVWT,169,R,08.57,N,04.41,M,,*31
\c:1552136923*56\$GPGLL,3247.2156,N,07954.5646,W,130912.000,A,A*4F	\c:1552137538*51\$IIVWT,169,R,08.57,N,04.41,M,,*31
\c:1552136924*51\$GPGLL,3247.2156,N,07954.5646,W,130913.000,A,A*4E	\c:1552137540*5E\$IIVWT,170,R,08.30,N,04.27,M,,*38
\c:1552136924*51\$GPGLL,3247.222,N,07954.563,W,130913,A,A*53	\c:1552137542*5C\$IIVWT,169,R,08.47,N,04.36,M,,*30
\c:1552136925*50\$GPGLL,3247.2156,N,07954.5646,W,130914.000,A,A*49	\c:1552137544*5A\$IIVWT,169,R,08.82,N,04.54,M,,*3D
\c:1552136926*53\$GPGLL,3247.2156,N,07954.5646,W,130915.000,A,A*48	\c:1552137546*58\$IIVWT,171,R,08.78,N,04.52,M,,*37
\c:1552136926*53\$GPGLL,3247.222,N,07954.563,W,130915,A,A*55	\c:1552137548*56\$IIVWT,172,R,08.53,N,04.39,M,,*30
\c:1552136927*52\$GPGLL,3247.2156,N,07954.5646,W,130916.000,A,A*4B	\c:1552137550*5F\$IIVWT,169,R,08.82,N,04.54,M,,*3D
\c:1552136928*5D\$GPGLL,3247.2156,N,07954.5646,W,130917.000,A,A*4A	\c:1552137552*5D\$IIVWT,172,R,08.61,N,04.43,M,,*3C
\c:1552136928*5D\$GPGLL,3247.222,N,07954.563,W,130917,A,A*57	\c:1552137554*5B\$IIVWT,167,R,07.28,N,03.75,M,,*38
\c:1552136929*5C\$GPGLL,3247.2156,N,07954.5646,W,130918.000,A,A*45	\c:1552137556*59\$IIVWT,166,R,06.41,N,03.30,M,,*36
\c:1552136930*54\$GPGLL,3247.2156,N,07954.5646,W,130919.000,A,A*44	\c:1552137558*57\$IIVWT,164,R,06.22,N,03.20,M,,*30
\c:1552136930*54\$GPGLL,3247.222,N,07954.563,W,130919,A,A*59	\c:1552137560*5C\$IIVWT,169,R,06.14,N,03.16,M,,*3D
\c:1552136931*55\$GPGLL,3247.2156,N,07954.5646,W,130920.000,A,A*4E	\c:1552137562*5E\$IIVWT,161,R,05.69,N,02.93,M,,*30
\c:1552136932*56\$GPGLL,3247.2156,N,07954.5646,W,130921.000,A,A*4F	\c:1552137564*58\$IIVWT,171,R,05.52,N,02.84,M,,*3F
\c:1552136932*56\$GPGLL,3247.222,N,07954.563,W,130921,A,A*52	\c:1552137566*5A\$IIVWT,153,R,05.07,N,02.61,M,,*34
\c:1552136933*57\$GPGLL,3247.2156,N,07954.5646,W,130922.000,A,A*4C	\c:1552137568*54\$IIVWT,167,R,05.52,N,02.84,M,,*38
\c:1552136934*50\$GPGLL,3247.2156,N,07954.5646,W,130923.000,A,A*4D	\c:1552137570*5D\$IIVWT,154,R,05.26,N,02.71,M,,*31
\c:1552136934*50\$GPGLL,3247.222,N,07954.563,W,130923,A,A*50	\c:1552137573*5E\$IIVWT,164,R,04.80,N,02.47,M,,*3A
\c:1552136935*51\$GPGLL,3247.2156,N,07954.5646,W,130924.000,A,A*4A	\c:1552137575*58\$IIVWT,154,R,04.52,N,02.33,M,,*35
\c:1552136936*52\$GPGLL,3247.2156,N,07954.5646,W,130925.000,A,A*4B	\c:1552137577*5A\$IIVWT,162,R,04.64,N,02.39,M,,*3F
\c:1552136936*52\$GPGLL,3247.222,N,07954.563,W,130925,A,A*56	\c:1552137579*54\$IIVWT,157,R,04.29,N,02.21,M,,*39
\c:1552136937*53\$GPGLL,3247.2156,N,07954.5646,W,130926.000,A,A*48	\c:1552137581*53\$IIVWT,156,R,04.21,N,02.17,M,,*35
\c:1552136938*5C\$GPGLL,3247.2156,N,07954.5646,W,130927.000,A,A*49	\c:1552137583*51\$IIVWT,148,R,03.75,N,01.93,M,,*33
\c:1552136938*5C\$GPGLL,3247.222,N,07954.563,W,130927,A,A*54	\c:1552137585*57\$IIVWT,152,R,03.88,N,02.00,M,,*33
\c:1552136939*5D\$GPGLL,3247.2156,N,07954.5646,W,130928.000,A,A*46	\c:1552137587*55\$IIVWT,153,R,03.75,N,01.93,M,,*39
\c:1552136940*53\$GPGLL,3247.2156,N,07954.5646,W,130929.000,A,A*47	\c:1552137589*5B\$IIVWT,151,R,03.73,N,01.92,M,,*3C
\c:1552136940*53\$GPGLL,3247.222,N,07954.563,W,130929,A,A*5A	\c:1552137591*52\$IIVWT,154,R,03.46,N,01.78,M,,*3B
\c:1552136941*52\$GPGLL,3247.2156,N,07954.5646,W,130930.000,A,A*4F	\c:1552137593*50\$IIVWT,154,R,03.11,N,01.60,M,,*30
\c:1552136942*51\$GPGLL,3247.2156,N,07954.5646,W,130931.000,A,A*4E	\c:1552137595*56\$IIVWT,156,R,02.85,N,01.47,M,,*3B
\c:1552136943*50\$GPGLL,3247.222,N,07954.563,W,130931,A,A*53	\c:1552137597*54\$IIVWT,167,R,02.83,N,01.46,M,,*3E
\c:1552136943*50\$GPGLL,3247.2156,N,07954.5646,W,130932.000,A,A*4D	\c:1552137599*5A\$IIVWT,166,R,02.62,N,01.35,M,,*34
\c:1552136944*57\$GPGLL,3247.2156,N,07954.5646,W,130933.000,A,A*4C	\c:1552137601*58\$IIVWT,170,R,02.35,N,01.21,M,,*34
\c:1552136945*56\$GPGLL,3247.222,N,07954.563,W,130933,A,A*51	\c:1552137603*5A\$IIVWT,171,R,02.46,N,01.27,M,,*37
\c:1552136945*56\$GPGLL,3247.2156,N,07954.5646,W,130934.000,A,A*4B	\c:1552137605*5C\$IIVWT,180,L,01.45,N,00.75,M,,*21
\c:1552136946*55\$GPGLL,3247.2156,N,07954.5646,W,130935.000,A,A*4A	\c:1552137607*5E\$IIVWT,180,L,01.26,N,00.65,M,,*25
\c:1552136947*54\$GPGLL,3247.222,N,07954.563,W,130935,A,A*57	\c:1552137609*50\$IIVWT,180,L,01.34,N,00.69,M,,*2A
\c:1552136947*54\$GPGLL,3247.2157,N,07954.5646,W,130936.000,A,A*48	\c:1552137611*59\$IIVWT,180,L,01.38,N,00.71,M,,*2F
\c:1552136948*5B\$GPGLL,3247.2157,N,07954.5646,W,130937.000,A,A*49	\c:1552137613*5B\$IIVWT,180,L,01.30,N,00.67,M,,*20
\c:1552136949*5A\$GPGLL,3247.222,N,07954.563,W,130937,A,A*55	\c:1552137616*5E\$IIVWT,172,R,01.74,N,00.90,M,,*3B
\c:1552136949*5A\$GPGLL,3247.2157,N,07954.5646,W,130938.000,A,A*46	\c:1552137618*50\$IIVWT,172,R,01.57,N,00.81,M,,*3A
\c:1552136950*52\$GPGLL,3247.2157,N,07954.5646,W,130939.000,A,A*47	\c:1552137620*5B\$IIVWT,045,R,00.00,N,00.00,M,,*35
\c:1552136951*53\$GPGLL,3247.222,N,07954.563,W,130939,A,A*5B	\c:1552137622*59\$IIVWT,045,R,00.00,N,00.00,M,,*35
\c:1552136951*53\$GPGLL,3247.2157,N,07954.5646,W,130940.000,A,A*49	\c:1552137624*5F\$IIVWT,133,L,00.75,N,00.39,M,,*23
\c:1552136952*50\$GPGLL,3247.2157,N,07954.5646,W,130941.000,A,A*48	\c:1552137626*5D\$IIVWT,059,L,01.39,N,00.72,M,,*28
\c:1552136953*51\$GPGLL,3247.222,N,07954.563,W,130941,A,A*54	\c:1552137628*53\$IIVWT,061,L,01.80,N,00.93,M,,*2E
\c:1552136953*51\$GPGLL,3247.2157,N,07954.5646,W,130942.000,A,A*4B	\c:1552137630*5A\$IIVWT,074,L,02.09,N,01.08,M,,*2B
\c:1552136954*56\$GPGLL,3247.2157,N,07954.5646,W,130943.000,A,A*4A	\c:1552137632*58\$IIVWT,074,L,01.98,N,01.02,M,,*2A
\c:1552136955*57\$GPGLL,3247.222,N,07954.563,W,130943,A,A*56	\c:1552137634*5E\$IIVWT,077,L,02.21,N,01.14,M,,*2F
\c:1552136955*57\$GPGLL,3247.2157,N,07954.5646,W,130944.000,A,A*4D	\c:1552137636*5C\$IIVWT,073,L,01.88,N,00.97,M,,*21
\c:1552136956*54\$GPGLL,3247.2157,N,07954.5647,W,130945.000,A,A*4D	\c:1552137638*52\$IIVWT,084,L,02.23,N,01.15,M,,*20
\c:1552136957*55\$GPGLL,3247.222,N,07954.563,W,130945,A,A*50	\c:1552137640*5D\$IIVWT,084,L,02.11,N,01.09,M,,*2C
\c:1552136957*55\$GPGLL,3247.2157,N,07954.5647,W,130946.000,A,A*4E	\c:1552137642*5F\$IIVWT,093,L,02.60,N,01.34,M,,*22
\c:1552136958*5A\$GPGLL,3247.2157,N,07954.5647,W,130947.000,A,A*4F	\c:1552137644*59\$IIVWT,099,L,02.50,N,01.29,M,,*27
\c:1552136959*5B\$GPGLL,3247.222,N,07954.563,W,130947,A,A*52	\c:1552137646*5B\$IIVWT,101,L,02.31,N,01.19,M,,*23
\c:1552136959*5B\$GPGLL,3247.2157,N,07954.5647,W,130948.000,A,A*40	\c:1552137648*55\$IIVWT,105,L,02.89,N,01.49,M,,*21
\c:1552136960*51\$GPGLL,3247.2157,N,07954.5647,W,130949.000,A,A*41	\c:1552137650*5C\$IIVWT,105,L,02.19,N,01.13,M,,*27
\c:1552136961*50\$GPGLL,3247.222,N,07954.563,W,130949,A,A*5C	\c:1552137652*5E\$IIVWT,109,L,02.23,N,01.15,M,,*24
\c:1552136961*50\$GPGLL,3247.2157,N,07954.5647,W,130950.000,A,A*49	\c:1552137654*58\$IIVWT,116,L,02.50,N,01.29,M,,*21
\c:1552136962*53\$GPGLL,3247.2157,N,07954.5647,W,130951.000,A,A*48	\c:1552137656*5A\$IIVWT,120,L,01.32,N,00.68,M,,*27
\c:1552136963*52\$GPGLL,3247.222,N,07954.563,W,130951,A,A*55	\c:1552137659*55\$IIVWT,115,L,02.11,N,01.09,M,,*25
