\c:1546359755*57\$GPGLL,3247.221,N,07954.564,W,162233,A,A*59
\c:1546359757*55\$GPGLL,3247.221,N,07954.564,W,162235,A,A*5F
\c:1546359759*5B\$GPGLL,3247.221,N,07954.564,W,162237,A,A*5D
\c:1546359761*50\$GPGLL,3247.221,N,07954.564,W,162239,A,A*53
\c:1546359763*52\$GPGLL,3247.221,N,07954.564,W,162241,A,A*5C
\c:1546359765*54\$GPGLL,3247.221,N,07954.564,W,162243,A,A*5E
\c:1546359767*56\$GPGLL,3247.221,N,07954.564,W,162245,A,A*58
\c:1546359769*58\$GPGLL,3247.221,N,07954.564,W,162247,A,A*5A
\c:1546359771*51\$GPGLL,3247.221,N,07954.564,W,162249,A,A*54
\c:1546359773*53\$GPGLL,3247.221,N,07954.564,W,162251,A,A*5D
\c:1546359775*55\$GPGLL,3247.221,N,07954.564,W,162253,A,A*5F
\c:1546359777*57\$GPGLL,3247.221,N,07954.564,W,162255,A,A*59
\c:1546359779*59\$GPGLL,3247.221,N,07954.564,W,162257,A,A*5B
\c:1546359781*5E\$GPGLL,3247.221,N,07954.564,W,162300,A,A*58
\c:1546359782*5D\$GPGLL,3247.1952,N,07954.5942,W,162302.000,A,A*47
\c:1546359783*5C\$GPGLL,3247.1952,N,07954.5942,W,162303.000,A,A*46
\c:1546359783*5C\$GPGLL,3247.221,N,07954.564,W,162302,A,A*5A
\c:1546359784*5B\$GPGLL,3247.1952,N,07954.5942,W,162304.000,A,A*41
\c:1546359785*5A\$GPGLL,3247.1952,N,07954.5942,W,162305.000,A,A*40
\c:1546359785*5A\$GPGLL,3247.221,N,07954.564,W,162304,A,A*5C
\c:1546359786*59\$GPGLL,3247.1951,N,07954.5942,W,162306.000,A,A*40
\c:1546359787*58\$GPGLL,3247.1951,N,07954.5941,W,162307.000,A,A*42
\c:1546359787*58\$GPGLL,3247.221,N,07954.564,W,162306,A,A*5E
\c:1546359788*57\$GPGLL,3247.1950,N,07954.5941,W,162308.000,A,A*4C
\c:1546359789*56\$GPGLL,3247.1950,N,07954.5941,W,162309.000,A,A*4D
\c:1546359789*56\$GPGLL,3247.221,N,07954.564,W,162308,A,A*50
\c:1546359790*5E\$GPGLL,3247.1950,N,07954.5941,W,162310.000,A,A*45
\c:1546359791*5F\$GPGLL,3247.1950,N,07954.5941,W,162311.000,A,A*44
\c:1546359791*5F\$GPGLL,3247.221,N,07954.564,W,162310,A,A*59
\c:1546359792*5C\$GPGLL,3247.1950,N,07954.5941,W,162312.000,A,A*47
\c:1546359793*5D\$GPGLL,3247.1951,N,07954.5941,W,162313.000,A,A*47
\c:1546359793*5D\$GPGLL,3247.221,N,07954.564,W,162312,A,A*5B
\c:1546359794*5A\$GPGLL,3247.1951,N,07954.5941,W,162314.000,A,A*40
\c:1546359795*5B\$GPGLL,3247.1951,N,07954.5942,W,162315.000,A,A*42
\c:1546359796*58\$GPGLL,3247.221,N,07954.564,W,162314,A,A*5D
\c:1546359796*58\$GPGLL,3247.1951,N,07954.5942,W,162316.000,A,A*41
\c:1546359797*59\$GPGLL,3247.1952,N,07954.5941,W,162317.000,A,A*40
\c:1546359798*56\$GPGLL,3247.221,N,07954.564,W,162316,A,A*5F
\c:1546359798*56\$GPGLL,3247.1952,N,07954.5941,W,162318.000,A,A*4F
\c:1546359799*57\$GPGLL,3247.1953,N,07954.5940,W,162319.000,A,A*4E
\c:1546359800*58\$GPGLL,3247.221,N,07954.564,W,162318,A,A*51
\c:1546359800*58\$GPGLL,3247.1953,N,07954.5940,W,162320.000,A,A*44
\c:1546359801*59\$GPGLL,3247.1953,N,07954.5941,W,162321.000,A,A*44
\c:1546359802*5A\$GPGLL,3247.221,N,07954.564,W,162320,A,A*5A
\c:1546359802*5A\$GPGLL,3247.1953,N,07954.5941,W,162322.000,A,A*47
\c:1546359803*5B\$GPGLL,3247.1953,N,07954.5941,W,162323.000,A,A*46
\c:1546359804*5C\$GPGLL,3247.221,N,07954.564,W,162322,A,A*58
\c:1546359804*5C\$GPGLL,3247.1953,N,07954.5942,W,162324.000,A,A*42
\c:1546359805*5D\$GPGLL,3247.1953,N,07954.5942,W,162325.000,A,A*43
\c:1546359806*5E\$GPGLL,3247.221,N,07954.564,W,162324,A,A*5E
\c:1546359806*5E\$GPGLL,3247.1952,N,07954.5941,W,162326.000,A,A*42
\c:1546359807*5F\$GPGLL,3247.1952,N,07954.5941,W,162327.000,A,A*43
\c:1546359808*50\$GPGLL,3247.221,N,07954.564,W,162326,A,A*5C
\c:1546359808*50\$GPGLL,3247.1952,N,07954.5941,W,162328.000,A,A*4C
\c:1546359809*51\$GPGLL,3247.1952,N,07954.5941,W,162329.000,A,A*4D
\c:1546359810*59\$GPGLL,3247.221,N,07954.564,W,162329,A,A*53
\c:1546359810*59\$GPGLL,3247.1952,N,07954.5941,W,162330.000,A,A*45
\c:1546359811*58\$GPGLL,3247.1951,N,07954.5941,W,162331.000,A,A*47
\c:1546359812*5B\$GPGLL,3247.221,N,07954.564,W,162331,A,A*5A
\c:1546359812*5B\$GPGLL,3247.1951,N,07954.5941,W,162332.000,A,A*44
\c:1546359813*5A\$GPGLL,3247.1951,N,07954.5940,W,162333.000,A,A*44
\c:1546359814*5D\$GPGLL,3247.221,N,07954.564,W,162333,A,A*58
\c:1546359814*5D\$GPGLL,3247.1951,N,07954.5940,W,162334.000,A,A*43
\c:1546359815*5C\$GPGLL,3247.1952,N,07954.5940,W,162335.000,A,A*41
\c:1546359816*5F\$GPGLL,3247.1952,N,07954.5940,W,162336.000,A,A*42
\c:1546359816*5F\$GPGLL,3247.221,N,07954.564,W,162335,A,A*5E
\c:1546359817*5E\$GPGLL,3247.1952,N,07954.5940,W,162337.000,A,A*43
\c:1546359818*51\$GPGLL,3247.1952,N,07954.5939,W,162338.000,A,A*42
\c:1546359818*51\$GPGLL,3247.221,N,07954.564,W,162337,A,A*5C
\c:1546359819*50\$GPGLL,3247.1951,N,07954.5939,W,162339.000,A,A*40
\c:1546359820*5A\$GPGLL,3247.1951,N,07954.5939,W,162340.000,A,A*4E
\c:1546359820*5A\$GPGLL,3247.221,N,07954.564,W,162339,A,A*52
\c:1546359821*5B\$GPGLL,3247.1951,N,07954.5939,W,162341.000,A,A*4F
\c:1546359822*58\$GPGLL,3247.1951,N,07954.5940,W,162342.000,A,A*42
\c:1546359822*58\$GPGLL,3247.221,N,07954.564,W,162341,A,A*5D
\c:1546359823*59\$GPGLL,3247.1950,N,07954.5940,W,162343.000,A,A*42
\c:1546359824*5E\$GPGLL,3247.1950,N,07954.5940,W,162344.000,A,A*45
\c:1546359824*5E\$GPGLL,3247.221,N,07954.564,W,162343,A,A*5F
\c:1546359825*5F\$GPGLL,3247.1950,N,07954.5941,W,162345.000,A,A*45
\c:1546359826*5C\$GPGLL,3247.1950,N,07954.5941,W,162346.000,A,A*46
\c:1546359826*5C\$GPGLL,3247.221,N,07954.564,W,162345,A,A*59
\c:1546359827*5D\$GPGLL,3247.1949,N,07954.5941,W,162347.000,A,A*4F
\c:1546359828*52\$GPGLL,3247.1949,N,07954.5940,W,162348.000,A,A*41
\c:1546359828*52\$GPGLL,3247.221,N,07954.564,W,162347,A,A*5B
\c:1546359829*53\$GPGLL,3247.1949,N,07954.5939,W,162349.000,A,A*4E
\c:1546359830*5B\$GPGLL,3247.1948,N,07954.5939,W,162350.000,A,A*47
\c:1546359830*5B\$GPGLL,3247.221,N,07954.564,W,162349,A,A*55
\c:1546359831*5A\$GPGLL,3247.1948,N,07954.5938,W,162351.000,A,A*47
\c:1546359832*59\$GPGLL,3247.1948,N,07954.5938,W,162352.000,A,A*44
\c:1546359832*59\$GPGLL,3247.221,N,07954.564,W,162351,A,A*5C
\c:1546359833*58\$GPGLL,3247.1948,N,07954.5938,W,162353.000,A,A*45
\c:1546359834*5F\$GPGLL,3247.1948,N,07954.5937,W,162354.000,A,A*4D
\c:1546359834*5F\$GPGLL,3247.221,N,07954.564,W,162353,A,A*5E
\c:1546359835*5E\$GPGLL,3247.1948,N,07954.5937,W,162355.000,A,A*4C
\c:1546359836*5D\$GPGLL,3247.1948,N,07954.5936,W,162356.000,A,A*4E
\c:1546359836*5D\$GPGLL,3247.221,N,07954.564,W,162355,A,A*58
\c:1546359837*5C\$GPGLL,3247.1948,N,07954.5936,W,162357.000,A,A*4F
\c:1546359838*53\$GPGLL,3247.1948,N,07954.5935,W,162358.000,A,A*43
\c:1546359839*52\$GPGLL,3247.221,N,07954.563,W,162357,A,A*5D
\c:1546359839*52\$GPGLL,3247.1948,N,07954.5935,W,162359.000,A,A*42
\c:1546359840*5C\$GPGLL,3247.1947,N,07954.5934,W,162400.000,A,A*47
\c:1546359841*5D\$GPGLL,3247.221,N,07954.563,W,162359,A,A*53
\c:1546359841*5D\$GPGLL,3247.1947,N,07954.5934,W,162401.000,A,A*46
\c:1546359842*5E\$GPGLL,3247.1947,N,07954.5933,W,162402.000,A,A*42
\c:1546359843*5F\$GPGLL,3247.221,N,07954.563,W,162401,A,A*59
\c:1546359843*5F\$GPGLL,3247.1947,N,07954.5933,W,162403.000,A,A*43
\c:1546359844*58\$GPGLL,3247.1946,N,07954.5933,W,162404.000,A,A*45
\c:1546359845*59\$GPGLL,3247.221,N,07954.563,W,162404,A,A*5C
\c:1546359845*59\$GPGLL,3247.1946,N,07954.5933,W,162405.000,A,A*44
\c:1546359846*5A\$GPGLL,3247.1946,N,07954.5933,W,162406.000,A,A*47
\c:1546359847*5B\$GPGLL,3247.221,N,07954.563,W,162406,A,A*5E
\c:1546359847*5B\$GPGLL,3247.1946,N,07954.5933,W,162407.000,A,A*46
\c:1546359848*54\$GPGLL,3247.1946,N,07954.5933,W,162408.000,A,A*49
\c:1546359849*55\$GPGLL,3247.221,N,07954.563,W,162408,A,A*50
\c:1546359849*55\$GPGLL,3247.1946,N,07954.5933,W,162409.000,A,A*48
\c:1546359850*5D\$GPGLL,3247.1946,N,07954.5933,W,162410.000,A,A*40
\c:1546359851*5C\$GPGLL,3247.221,N,07954.563,W,162410,A,A*59
\c:1546359852*5F\$GPGLL,3247.1946,N,07954.5933,W,162411.000,A,A*41
\c:1546359852*5F\$GPGLL,3247.1946,N,07954.5932,W,162412.000,A,A*43
\c:1546359853*5E\$GPGLL,3247.221,N,07954.563,W,162412,A,A*5B
\c:1546359853*5E\$GPGLL,3247.1946,N,07954.5932,W,162413.000,A,A*42
\c:1546359854*59\$GPGLL,3247.1946,N,07954.5931,W,162414.000,A,A*46
\c:1546359855*58\$GPGLL,3247.221,N,07954.563,W,162414,A,A*5D
\c:1546359855*58\$GPGLL,3247.1946,N,07954.5931,W,162415.000,A,A*47
\c:1546359868*56\$GPGLL,3247.1942,N,07954.5932,W,162419.000,A,A*4C
\c:1546359868*56\$GPGLL,3247.221,N,07954.563,W,162418,A,A*51
\c:1546359868*56\$GPGLL,3247.1942,N,07954.5932,W,162420.000,A,A*46
\c:1546359868*56\$GPGLL,3247.1941,N,07954.5932,W,162421.000,A,A*44
\c:1546359868*56\$GPGLL,3247.221,N,07954.563,W,162420,A,A*5A
\c:1546359868*56\$GPGLL,3247.1940,N,07954.5932,W,162422.000,A,A*46
\c:1546359868*56\$GPGLL,3247.1940,N,07954.5932,W,162423.000,A,A*47
\c:1546359868*56\$GPGLL,3247.221,N,07954.563,W,162422,A,A*58
\c:1546359868*56\$GPGLL,3247.1939,N,07954.5933,W,162424.000,A,A*4F
\c:1546359868*56\$GPGLL,3247.1939,N,07954.5933,W,162425.000,A,A*4E
\c:1546359868*56\$GPGLL,3247.221,N,07954.563,W,162424,A,A*5E
\c:1546359868*56\$GPGLL,3247.1939,N,07954.5933,W,162426.000,A,A*4D
\c:1546359868*56\$GPGLL,3247.1939,N,07954.5933,W,162427.000,A,A*4C
\c:1546359868*56\$GPGLL,3247.221,N,07954.563,W,162426,A,A*5C
\c:1546359868*56\$GPGLL,3247.1939,N,07954.5932,W,162428.000,A,A*42
\c:1546359869*57\$GPGLL,3247.1939,N,07954.5932,W,162429.000,A,A*43
\c:1546359869*57\$GPGLL,3247.221,N,07954.563,W,162428,A,A*52
\c:1546359870*5F\$GPGLL,3247.1939,N,07954.5932,W,162430.000,A,A*4B
\c:1546359871*5E\$GPGLL,3247.1937,N,07954.5932,W,162431.000,A,D*41
\c:1546359871*5E\$GPGLL,3247.221,N,07954.563,W,162430,A,A*5B
\c:1546359872*5D\$GPGLL,3247.1935,N,07954.5935,W,162432.000,A,D*47
\c:1546359873*5C\$GPGLL,3247.1934,N,07954.5935,W,162433.000,A,D*47
\c:1546359873*5C\$GPGLL,3247.221,N,07954.563,W,162432,A,A*59
\c:1546359874*5B\$GPGLL,3247.1934,N,07954.5931,W,162434.000,A,D*44
\c:1546359875*5A\$GPGLL,3247.1928,N,07954.5935,W,162435.000,A,D*4C
\c:1546359875*5A\$GPGLL,3247.221,N,07954.563,W,162434,A,A*5F
\c:1546359876*59\$GPGLL,3247.1926,N,07954.5938,W,162436.000,A,D*4C
\c:1546359877*58\$GPGLL,3247.1924,N,07954.5937,W,162437.000,A,D*40
\c:1546359877*58\$GPGLL,3247.221,N,07954.563,W,162436,A,A*5D
\c:1546359878*57\$GPGLL,3247.1923,N,07954.5937,W,162438.000,A,D*48
\c:1546359879*56\$GPGLL,3247.1922,N,07954.5935,W,162439.000,A,D*4A
\c:1546359879*56\$GPGLL,3247.221,N,07954.563,W,162438,A,A*53
\c:1546359880*50\$GPGLL,3247.1921,N,07954.5937,W,162440.000,A,D*45
\c:1546359881*51\$GPGLL,3247.1920,N,07954.5937,W,162441.000,A,D*45
\c:1546359882*52\$GPGLL,3247.221,N,07954.563,W,162440,A,A*5C
\c:1546359882*52\$GPGLL,3247.1919,N,07954.5935,W,162442.000,A,D*4E
\c:1546359883*53\$GPGLL,3247.1916,N,07954.5934,W,162443.000,A,D*41
\c:1546359884*54\$GPGLL,3247.221,N,07954.563,W,162442,A,A*5E
\c:1546359884*54\$GPGLL,3247.1916,N,07954.5934,W,162444.000,A,D*46
\c:1546359885*55\$GPGLL,3247.1915,N,07954.5934,W,162445.000,A,D*44
\c:1546359886*56\$GPGLL,3247.221,N,07954.564,W,162444,A,A*5F
\c:1546359886*56\$GPGLL,3247.1911,N,07954.5935,W,162446.000,A,D*42
\c:1546359887*57\$GPGLL,3247.1910,N,07954.5934,W,162447.000,A,D*43
\c:1546359888*58\$GPGLL,3247.221,N,07954.564,W,162446,A,A*5D
\c:1546359888*58\$GPGLL,3247.1908,N,07954.5935,W,162448.000,A,D*44
\c:1546359889*59\$GPGLL,3247.1905,N,07954.5935,W,162449.000,A,D*48
\c:1546359890*51\$GPGLL,3247.221,N,07954.564,W,162448,A,A*53
\c:1546359890*51\$GPGLL,3247.1903,N,07954.5933,W,162450.000,A,D*40
\c:1546359891*50\$GPGLL,3247.1901,N,07954.5934,W,162451.000,A,D*44
\c:1546359892*53\$GPGLL,3247.221,N,07954.564,W,162450,A,A*5A
\c:1546359893*52\$GPGLL,3247.1899,N,07954.5934,W,162452.000,A,D*47
\c:1546359893*52\$GPGLL,3247.1900,N,07954.5933,W,162453.000,A,D*40
\c:1546359894*55\$GPGLL,3247.221,N,07954.564,W,162452,A,A*58
\c:1546359894*55\$GPGLL,3247.1900,N,07954.5933,W,162454.000,A,D*47
\c:1546359895*54\$GPGLL,3247.1901,N,07954.5933,W,162455.000,A,D*47
\c:1546359896*57\$GPGLL,3247.221,N,07954.564,W,162454,A,A*5E
\c:1546359896*57\$GPGLL,3247.1900,N,07954.5932,W,162456.000,A,D*44
\c:1546359897*56\$GPGLL,3247.1899,N,07954.5930,W,162457.000,A,D*46
\c:1546359898*59\$GPGLL,3247.221,N,07954.564,W,162456,A,A*5C
\c:1546359898*59\$GPGLL,3247.1898,N,07954.5927,W,162458.000,A,D*4E
\c:1546359899*58\$GPGLL,3247.1898,N,07954.5927,W,162459.000,A,D*4F
\c:1546359900*59\$GPGLL,3247.221,N,07954.563,W,162458,A,A*55
\c:1546359900*59\$GPGLL,3247.1898,N,07954.5924,W,162500.000,A,D*41
\c:1546359901*58\$GPGLL,3247.1899,N,07954.5924,W,162501.000,A,D*41
\c:1546359902*5B\$GPGLL,3247.221,N,07954.563,W,162500,A,A*59
\c:1546359902*5B\$GPGLL,3247.1901,N,07954.5924,W,162502.000,A,D*42
\c:1546359903*5A\$GPGLL,3247.1903,N,07954.5924,W,162503.000,A,D*41
\c:1546359904*5D\$GPGLL,3247.1904,N,07954.5924,W,162504.000,A,D*41
\c:1546359904*5D\$GPGLL,3247.221,N,07954.563,W,162502,A,A*5B
\c:1546359905*5C\$GPGLL,3247.1905,N,07954.5924,W,162505.000,A,D*41
\c:1546359906*5F\$GPGLL,3247.1905,N,07954.5925,W,162506.000,A,D*43
\c:1546359906*5F\$GPGLL,3247.221,N,07954.563,W,162504,A,A*5D
\c:1546359907*5E\$GPGLL,3247.1898,N,07954.5897,W,162507.000,A,D*4F
\c:1546359908*51\$GPGLL,3247.1900,N,07954.5895,W,162508.000,A,D*42
\c:1546359908*51\$GPGLL,3247.221,N,07954.563,W,162506,A,A*5F
\c:1546359909*50\$GPGLL,3247.1898,N,07954.5894,W,162509.000,A,D*42
\c:1546359910*58\$GPGLL,3247.1898,N,07954.5894,W,162510.000,A,D*4A
\c:1546359910*58\$GPGLL,3247.221,N,07954.563,W,162509,A,A*50
\c:1546359911*59\$GPGLL,3247.1897,N,07954.5894,W,162511.000,A,D*44
\c:1546359912*5A\$GPGLL,3247.1896,N,07954.5894,W,162512.000,A,D*46
\c:1546359912*5A\$GPGLL,3247.221,N,07954.563,W,162511,A,A*59
\c:1546359913*5B\$GPGLL,3247.1896,N,07954.5893,W,162513.000,A,D*40
\c:1546359914*5C\$GPGLL,3247.1896,N,07954.5892,W,162514.000,A,D*46
\c:1546359914*5C\$GPGLL,3247.221,N,07954.563,W,162513,A,A*5B
\c:1546359915*5D\$GPGLL,3247.1895,N,07954.5892,W,162515.000,A,D*44
\c:1546359916*5E\$GPGLL,3247.1895,N,07954.5892,W,162516.000,A,D*47
\c:1546359916*5E\$GPGLL,3247.221,N,07954.563,W,162515,A,A*5D
\c:1546359917*5F\$GPGLL,3247.1894,N,07954.5892,W,162517.000,A,D*47
\c:1546359918*50\$GPGLL,3247.1894,N,07954.5893,W,162518.000,A,D*49
\c:1546359918*50\$GPGLL,3247.221,N,07954.563,W,162517,A,A*5F
\c:1546359919*51\$GPGLL,3247.1894,N,07954.5893,W,162519.000,A,D*48
\c:1546359920*5B\$GPGLL,3247.1893,N,07954.5894,W,162520.000,A,D*42
\c:1546359920*5B\$GPGLL,3247.221,N,07954.563,W,162519,A,A*51
\c:1546359921*5A\$GPGLL,3247.1893,N,07954.5894,W,162521.000,A,D*43
\c:1546359922*59\$GPGLL,3247.1893,N,07954.5894,W,162522.000,A,D*40
\c:1546359922*59\$GPGLL,3247.221,N,07954.563,W,162521,A,A*5A
\c:1546359923*58\$GPGLL,3247.1893,N,07954.5894,W,162523.000,A,D*41
\c:1546359924*5F\$GPGLL,3247.1893,N,07954.5894,W,162524.000,A,D*46
\c:1546359925*5E\$GPGLL,3247.221,N,07954.564,W,162523,A,A*5F
\c:1546359925*5E\$GPGLL,3247.1894,N,07954.5894,W,162525.000,A,D*40
\c:1546359926*5D\$GPGLL,3247.1894,N,07954.5894,W,162526.000,A,D*43
\c:1546359927*5C\$GPGLL,3247.221,N,07954.564,W,162525,A,A*59
\c:1546359927*5C\$GPGLL,3247.1894,N,07954.5894,W,162527.000,A,D*42
\c:1546359928*53\$GPGLL,3247.1895,N,07954.5893,W,162528.000,A,D*4B
\c:1546359929*52\$GPGLL,3247.221,N,07954.564,W,162527,A,A*5B
\c:1546359929*52\$GPGLL,3247.1895,N,07954.5893,W,162529.000,A,D*4A
\c:1546359931*5B\$GPGLL,3247.1896,N,07954.5893,W,162530.000,A,D*41
\c:1546359931*5B\$GPGLL,3247.221,N,07954.564,W,162529,A,A*55
\c:1546359931*5B\$GPGLL,3247.1896,N,07954.5893,W,162531.000,A,D*40
\c:1546359932*58\$GPGLL,3247.1896,N,07954.5892,W,162532.000,A,D*42
\c:1546359933*59\$GPGLL,3247.221,N,07954.564,W,162531,A,A*5C
\c:1546359933*59\$GPGLL,3247.1896,N,07954.5892,W,162533.000,A,D*43
\c:1546359934*5E\$GPGLL,3247.1897,N,07954.5891,W,162534.000,A,D*46
\c:1546359935*5F\$GPGLL,3247.221,N,07954.564,W,162533,A,A*5E
\c:1546359935*5F\$GPGLL,3247.1897,N,07954.5890,W,162535.000,A,D*46
\c:1546359936*5C\$GPGLL,3247.1897,N,07954.5890,W,162536.000,A,D*45
\c:1546359937*5D\$GPGLL,3247.221,N,07954.564,W,162536,A,A*5B
\c:1546359937*5D\$GPGLL,3247.1897,N,07954.5890,W,162537.000,A,D*44
\c:1546359938*52\$GPGLL,3247.1897,N,07954.5890,W,162538.000,A,D*4B
\c:1546359939*53\$GPGLL,3247.221,N,07954.564,W,162538,A,A*55
\c:1546359939*53\$GPGLL,3247.1897,N,07954.5890,W,162539.000,A,D*4A
\c:1546359940*5D\$GPGLL,3247.1897,N,07954.5890,W,162540.000,A,D*44
\c:1546359941*5C\$GPGLL,3247.221,N,07954.564,W,162540,A,A*5A
\c:1546359941*5C\$GPGLL,3247.1897,N,07954.5891,W,162541.000,A,D*44
\c:1546359942*5F\$GPGLL,3247.1897,N,07954.5891,W,162542.000,A,D*47
\c:1546359943*5E\$GPGLL,3247.221,N,07954.564,W,162542,A,A*58
\c:1546359943*5E\$GPGLL,3247.1897,N,07954.5891,W,162543.000,A,D*46
\c:1546359944*59\$GPGLL,3247.1897,N,07954.5891,W,162544.000,A,D*41
\c:1546359945*58\$GPGLL,3247.222,N,07954.564,W,162544,A,A*5D
\c:1546359945*58\$GPGLL,3247.1898,N,07954.5891,W,162545.000,A,D*4F
\c:1546359946*5B\$GPGLL,3247.1898,N,07954.5892,W,162546.000,A,D*4F
\c:1546359947*5A\$GPGLL,3247.1898,N,07954.5892,W,162547.000,A,D*4E
\c:1546359947*5A\$GPGLL,3247.222,N,07954.564,W,162546,A,A*5F
\c:1546359948*55\$GPGLL,3247.1898,N,07954.5892,W,162548.000,A,D*41
\c:1546359949*54\$GPGLL,3247.1898,N,07954.5892,W,162549.000,A,D*40
\c:1546359949*54\$GPGLL,3247.222,N,07954.564,W,162548,A,A*51
\c:1546359950*5C\$GPGLL,3247.1897,N,07954.5892,W,162550.000,A,D*47
\c:1546359951*5D\$GPGLL,3247.1897,N,07954.5892,W,162551.000,A,D*46
\c:1546359951*5D\$GPGLL,3247.222,N,07954.564,W,162550,A,A*58
\c:1546359952*5E\$GPGLL,3247.1898,N,07954.5892,W,162552.000,A,D*4A
\c:1546359953*5F\$GPGLL,3247.1898,N,07954.5893,W,162553.000,A,D*4A
\c:1546359953*5F\$GPGLL,3247.222,N,07954.564,W,162552,A,A*5A
\c:1546359954*58\$GPGLL,3247.1898,N,07954.5893,W,162554.000,A,D*4D
\c:1546359955*59\$GPGLL,3247.1898,N,07954.5892,W,162555.000,A,D*4D
\c:1546359955*59\$GPGLL,3247.222,N,07954.564,W,162554,A,A*5C
\c:1546359956*5A\$GPGLL,3247.1898,N,07954.5892,W,162556.000,A,D*4E
\c:1546359957*5B\$GPGLL,3247.1898,N,07954.5892,W,162557.000,A,D*4F
\c:1546359957*5B\$GPGLL,3247.222,N,07954.564,W,162556,A,A*5E
\c:1546359958*54\$GPGLL,3247.1898,N,07954.5892,W,162558.000,A,D*40
\c:1546359959*55\$GPGLL,3247.1898,N,07954.5892,W,162559.000,A,D*41
\c:1546359959*55\$GPGLL,3247.222,N,07954.564,W,162558,A,A*50
\c:1546359960*5F\$GPGLL,3247.1898,N,07954.5892,W,162600.000,A,D*4E
\c:1546359961*5E\$GPGLL,3247.1899,N,07954.5893,W,162601.000,A,D*4F
\c:1546359961*5E\$GPGLL,3247.222,N,07954.564,W,162600,A,A*5E
\c:1546359962*5D\$GPGLL,3247.1899,N,07954.5893,W,162602.000,A,D*4C
\c:1546359963*5C\$GPGLL,3247.1899,N,07954.5893,W,162603.000,A,D*4D
\c:1546359963*5C\$GPGLL,3247.222,N,07954.564,W,162602,A,A*5C
\c:1546359964*5B\$GPGLL,3247.1900,N,07954.5893,W,162604.000,A,D*4B
\c:1546359965*5A\$GPGLL,3247.1900,N,07954.5893,W,162605.000,A,D*4A
\c:1546359965*5A\$GPGLL,3247.222,N,07954.564,W,162604,A,A*5A
\c:1546359966*59\$GPGLL,3247.1900,N,07954.5893,W,162606.000,A,D*49
\c:1546359967*58\$GPGLL,3247.1900,N,07954.5892,W,162607.000,A,D*49
\c:1546359968*57\$GPGLL,3247.222,N,07954.564,W,162606,A,A*58
\c:1546359968*57\$GPGLL,3247.1900,N,07954.5893,W,162608.000,A,D*47
\c:1546359969*56\$GPGLL,3247.1899,N,07954.5893,W,162609.000,A,D*47
\c:1546359970*5E\$GPGLL,3247.222,N,07954.564,W,162608,A,A*56
\c:1546359970*5E\$GPGLL,3247.1899,N,07954.5893,W,162610.000,A,D*4F
\c:1546359971*5F\$GPGLL,3247.1899,N,07954.5893,W,162611.000,A,D*4E
\c:1546359972*5C\$GPGLL,3247.222,N,07954.564,W,162610,A,A*5F
\c:1546359972*5C\$GPGLL,3247.1899,N,07954.5893,W,162612.000,A,D*4D
\c:1546359973*5D\$GPGLL,3247.1899,N,07954.5894,W,162613.000,A,D*4B
\c:1546359974*5A\$GPGLL,3247.222,N,07954.564,W,162613,A,A*5C
\c:1546359974*5A\$GPGLL,3247.1899,N,07954.5893,W,162614.000,A,D*4B
\c:1546359975*5B\$GPGLL,3247.1899,N,07954.5893,W,162615.000,A,D*4A
\c:1546359976*58\$GPGLL,3247.222,N,07954.564,W,162615,A,A*5A
\c:1546359976*58\$GPGLL,3247.1900,N,07954.5894,W,162616.000,A,D*4F
\c:1546359977*59\$GPGLL,3247.1900,N,07954.5893,W,162617.000,A,D*49
\c:1546359978*56\$GPGLL,3247.222,N,07954.564,W,162617,A,A*58
\c:1546359978*56\$GPGLL,3247.1900,N,07954.5893,W,162618.000,A,D*46
\c:1546359979*57\$GPGLL,3247.1900,N,07954.5893,W,162619.000,A,D*47
\c:1546359980*51\$GPGLL,3247.222,N,07954.564,W,162619,A,A*56
\c:1546359980*51\$GPGLL,3247.1901,N,07954.5892,W,162620.000,A,D*4D
\c:1546359981*50\$GPGLL,3247.1901,N,07954.5892,W,162621.000,A,D*4C
\c:1546359982*53\$GPGLL,3247.222,N,07954.564,W,162621,A,A*5D
\c:1546359982*53\$GPGLL,3247.1901,N,07954.5892,W,162622.000,A,D*4F
\c:1546359983*52\$GPGLL,3247.1901,N,07954.5892,W,162623.000,A,D*4E
\c:1546359984*55\$GPGLL,3247.223,N,07954.564,W,162623,A,A*5E
\c:1546359984*55\$GPGLL,3247.1901,N,07954.5892,W,162624.000,A,D*49
\c:1546359985*54\$GPGLL,3247.1901,N,07954.5891,W,162625.000,A,D*4B
\c:1546359986*57\$GPGLL,3247.223,N,07954.564,W,162625,A,A*58
\c:1546359986*57\$GPGLL,3247.1901,N,07954.5891,W,162626.000,A,D*48
\c:1546359987*56\$GPGLL,3247.1902,N,07954.5892,W,162627.000,A,D*49
\c:1546359988*59\$GPGLL,3247.1902,N,07954.5892,W,162628.000,A,D*46
\c:1546359988*59\$GPGLL,3247.223,N,07954.563,W,162627,A,A*5D
\c:1546359989*58\$GPGLL,3247.1903,N,07954.5892,W,162629.000,A,D*46
\c:1546359990*50\$GPGLL,3247.223,N,07954.563,W,162629,A,A*53
\c:1546359990*50\$GPGLL,3247.1903,N,07954.5891,W,162630.000,A,D*4D
\c:1546359991*51\$GPGLL,3247.1903,N,07954.5891,W,162631.000,A,D*4C
\c:1546359992*52\$GPGLL,3247.1903,N,07954.5890,W,162632.000,A,D*4E
\c:1546359992*52\$GPGLL,3247.223,N,07954.563,W,162631,A,A*5A
\c:1546359993*53\$GPGLL,3247.1903,N,07954.5890,W,162633.000,A,D*4F
\c:1546359994*54\$GPGLL,3247.1903,N,07954.5889,W,162634.000,A,D*40
\c:1546359994*54\$GPGLL,3247.222,N,07954.563,W,162633,A,A*59
\c:1546359995*55\$GPGLL,3247.1903,N,07954.5889,W,162635.000,A,D*41
\c:1546359996*56\$GPGLL,3247.1904,N,07954.5889,W,162636.000,A,D*45
\c:1546359996*56\$GPGLL,3247.222,N,07954.563,W,162635,A,A*5F
\c:1546359997*57\$GPGLL,3247.1904,N,07954.5889,W,162637.000,A,D*44
\c:1546359998*58\$GPGLL,3247.1904,N,07954.5889,W,162638.000,A,D*4B
\c:1546359998*58\$GPGLL,3247.222,N,07954.563,W,162637,A,A*5D
\c:1546359999*59\$GPGLL,3247.1905,N,07954.5888,W,162639.000,A,D*4A
\c:1546360000*5A\$GPGLL,3247.1905,N,07954.5888,W,162640.000,A,D*44
\c:1546360000*5A\$GPGLL,3247.222,N,07954.563,W,162639,A,A*53
\c:1546360001*5B\$GPGLL,3247.1906,N,07954.5888,W,162641.000,A,D*46
\c:1546360002*58\$GPGLL,3247.1906,N,07954.5888,W,162642.000,A,D*45
\c:1546360002*58\$GPGLL,3247.222,N,07954.563,W,162641,A,A*5C
\c:1546360003*59\$GPGLL,3247.1907,N,07954.5887,W,162643.000,A,D*4A
\c:1546360004*5E\$GPGLL,3247.1907,N,07954.5887,W,162644.000,A,D*4D
\c:1546360004*5E\$GPGLL,3247.222,N,07954.563,W,162643,A,A*5E
\c:1546360005*5F\$GPGLL,3247.1907,N,07954.5886,W,162645.000,A,D*4D
\c:1546360006*5C\$GPGLL,3247.1907,N,07954.5886,W,162646.000,A,D*4E
\c:1546360006*5C\$GPGLL,3247.222,N,07954.563,W,162645,A,A*58
\c:1546360007*5D\$GPGLL,3247.1907,N,07954.5886,W,162647.000,A,D*4F
\c:1546360008*52\$GPGLL,3247.1907,N,07954.5885,W,162648.000,A,D*43
\c:1546360009*53\$GPGLL,3247.222,N,07954.563,W,162647,A,A*5A
\c:1546360009*53\$GPGLL,3247.1907,N,07954.5884,W,162649.000,A,D*43
\c:1546360010*5B\$GPGLL,3247.1908,N,07954.5883,W,162650.000,A,D*43
\c:1546360011*5A\$GPGLL,3247.222,N,07954.563,W,162649,A,A*54
\c:1546360011*5A\$GPGLL,3247.1908,N,07954.5883,W,162651.000,A,D*42
\c:1546360012*59\$GPGLL,3247.1909,N,07954.5882,W,162652.000,A,D*41
\c:1546360013*58\$GPGLL,3247.222,N,07954.563,W,162651,A,A*5D
\c:1546360013*58\$GPGLL,3247.1909,N,07954.5882,W,162653.000,A,D*40
\c:1546360014*5F\$GPGLL,3247.1910,N,07954.5882,W,162654.000,A,D*4F
\c:1546360015*5E\$GPGLL,3247.222,N,07954.563,W,162653,A,A*5F
\c:1546360015*5E\$GPGLL,3247.1910,N,07954.5882,W,162655.000,A,D*4E
\c:1546360016*5D\$GPGLL,3247.1911,N,07954.5882,W,162656.000,A,D*4C
\c:1546360017*5C\$GPGLL,3247.222,N,07954.563,W,162655,A,A*59
\c:1546360017*5C\$GPGLL,3247.1912,N,07954.5882,W,162657.000,A,D*4E
\c:1546360018*53\$GPGLL,3247.1912,N,07954.5882,W,162658.000,A,D*41
\c:1546360019*52\$GPGLL,3247.222,N,07954.563,W,162657,A,A*5B
\c:1546360019*52\$GPGLL,3247.1912,N,07954.5881,W,162659.000,A,D*43
\c:1546360020*58\$GPGLL,3247.1913,N,07954.5881,W,162700.000,A,D*4F
\c:1546360021*59\$GPGLL,3247.222,N,07954.563,W,162659,A,A*55
\c:1546360021*59\$GPGLL,3247.1915,N,07954.5879,W,162701.000,A,D*4F
\c:1546360023*5B\$GPGLL,3247.1916,N,07954.5879,W,162702.000,A,D*4F
\c:1546360023*5B\$GPGLL,3247.222,N,07954.563,W,162701,A,A*59
\c:1546360023*5B\$GPGLL,3247.1916,N,07954.5878,W,162703.000,A,D*4F
\c:1546360024*5C\$GPGLL,3247.1917,N,07954.5877,W,162704.000,A,D*46
\c:1546360025*5D\$GPGLL,3247.222,N,07954.563,W,162703,A,A*5B
\c:1546360025*5D\$GPGLL,3247.1917,N,07954.5877,W,162705.000,A,D*47
\c:1546360026*5E\$GPGLL,3247.1917,N,07954.5877,W,162706.000,A,D*44
\c:1546360027*5F\$GPGLL,3247.222,N,07954.563,W,162705,A,A*5D
\c:1546360027*5F\$GPGLL,3247.1917,N,07954.5877,W,162707.000,A,D*45
\c:1546360028*50\$GPGLL,3247.1917,N,07954.5876,W,162708.000,A,D*4B
\c:1546360029*51\$GPGLL,3247.1917,N,07954.5876,W,162709.000,A,D*4A
\c:1546360029*51\$GPGLL,3247.222,N,07954.563,W,162707,A,A*5F
\c:1546360030*59\$GPGLL,3247.1980,N,07954.5833,W,162710.000,A,D*4D
\c:1546360031*58\$GPGLL,3247.2023,N,07954.5747,W,162711.000,A,D*43
\c:1546360031*58\$GPGLL,3247.222,N,07954.563,W,162709,A,A*51
\c:1546360033*5A\$GPGLL,3247.2047,N,07954.5710,W,162712.000,A,D*40
\c:1546360033*5A\$GPGLL,3247.2094,N,07954.5642,W,162713.000,A,D*49
\c:1546360033*5A\$GPGLL,3247.222,N,07954.563,W,162711,A,A*58
\c:1546360034*5D\$GPGLL,3247.2090,N,07954.5646,W,162714.000,A,D*4E
\c:1546360035*5C\$GPGLL,3247.2082,N,07954.5650,W,162715.000,A,D*4B
\c:1546360035*5C\$GPGLL,3247.222,N,07954.563,W,162713,A,A*5A
\c:1546360036*5F\$GPGLL,3247.2074,N,07954.5652,W,162716.000,A,D*43
\c:1546360037*5E\$GPGLL,3247.2071,N,07954.5651,W,162717.000,A,D*44
\c:1546360037*5E\$GPGLL,3247.222,N,07954.563,W,162715,A,A*5C
\c:1546360038*51\$GPGLL,3247.2068,N,07954.5642,W,162718.000,A,D*41
\c:1546360039*50\$GPGLL,3247.2076,N,07954.5641,W,162719.000,A,D*4C
\c:1546360039*50\$GPGLL,3247.222,N,07954.563,W,162718,A,A*51
\c:1546360040*5E\$GPGLL,3247.2073,N,07954.5643,W,162720.000,A,D*41
\c:1546360041*5F\$GPGLL,3247.2087,N,07954.5634,W,162721.000,A,D*4B
\c:1546360041*5F\$GPGLL,3247.222,N,07954.563,W,162720,A,A*5A
\c:1546360042*5C\$GPGLL,3247.2104,N,07954.5625,W,162722.000,A,D*42
\c:1546360043*5D\$GPGLL,3247.2120,N,07954.5622,W,162723.000,A,D*42
\c:1546360043*5D\$GPGLL,3247.222,N,07954.563,W,162722,A,A*58
\c:1546360044*5A\$GPGLL,3247.2124,N,07954.5619,W,162724.000,A,D*49
\c:1546360045*5B\$GPGLL,3247.2128,N,07954.5615,W,162725.000,A,D*48
\c:1546360045*5B\$GPGLL,3247.222,N,07954.563,W,162724,A,A*5E
\c:1546360046*58\$GPGLL,3247.2135,N,07954.5614,W,162726.000,A,D*46
\c:1546360047*59\$GPGLL,3247.2134,N,07954.5615,W,162727.000,A,D*47
\c:1546360047*59\$GPGLL,3247.222,N,07954.563,W,162726,A,A*5C
\c:1546360048*56\$GPGLL,3247.2137,N,07954.5611,W,162728.000,A,D*4F
\c:1546360049*57\$GPGLL,3247.2137,N,07954.5605,W,162729.000,A,D*4B
\c:1546360049*57\$GPGLL,3247.222,N,07954.563,W,162728,A,A*52
\c:1546360050*5F\$GPGLL,3247.2135,N,07954.5602,W,162730.000,A,D*46
\c:1546360051*5E\$GPGLL,3247.2134,N,07954.5600,W,162731.000,A,D*44
\c:1546360052*5D\$GPGLL,3247.222,N,07954.563,W,162730,A,A*5B
\c:1546360052*5D\$GPGLL,3247.2130,N,07954.5600,W,162732.000,A,D*43
\c:1546360053*5C\$GPGLL,3247.2133,N,07954.5600,W,162733.000,A,D*41
\c:1546360054*5B\$GPGLL,3247.222,N,07954.563,W,162732,A,A*59
\c:1546360054*5B\$GPGLL,3247.2138,N,07954.5601,W,162734.000,A,D*4C
\c:1546360055*5A\$GPGLL,3247.2140,N,07954.5600,W,162735.000,A,D*43
\c:1546360056*59\$GPGLL,3247.222,N,07954.563,W,162734,A,A*5F
\c:1546360056*59\$GPGLL,3247.2144,N,07954.5601,W,162736.000,A,D*45
\c:1546360057*58\$GPGLL,3247.2151,N,07954.5600,W,162737.000,A,D*41
\c:1546360058*57\$GPGLL,3247.222,N,07954.563,W,162736,A,A*5D
\c:1546360058*57\$GPGLL,3247.2159,N,07954.5599,W,162738.000,A,D*45
\c:1546360059*56\$GPGLL,3247.2160,N,07954.5598,W,162739.000,A,D*4F
\c:1546360060*5C\$GPGLL,3247.222,N,07954.563,W,162738,A,A*53
\c:1546360060*5C\$GPGLL,3247.2163,N,07954.5596,W,162740.000,A,D*4C
\c:1546360061*5D\$GPGLL,3247.2164,N,07954.5596,W,162741.000,A,D*4A
\c:1546360062*5E\$GPGLL,3247.222,N,07954.563,W,162740,A,A*5C
\c:1546360062*5E\$GPGLL,3247.2164,N,07954.5596,W,162742.000,A,D*49
\c:1546360063*5F\$GPGLL,3247.2166,N,07954.5597,W,162743.000,A,D*4B
\c:1546360064*58\$GPGLL,3247.222,N,07954.563,W,162743,A,A*5F
\c:1546360064*58\$GPGLL,3247.2165,N,07954.5597,W,162744.000,A,D*4F
\c:1546360065*59\$GPGLL,3247.2167,N,07954.5597,W,162745.000,A,D*4C
\c:1546360066*5A\$GPGLL,3247.222,N,07954.563,W,162745,A,A*59
\c:1546360066*5A\$GPGLL,3247.2168,N,07954.5598,W,162746.000,A,D*4F
\c:1546360067*5B\$GPGLL,3247.2169,N,07954.5598,W,162747.000,A,D*4F
\c:1546360068*54\$GPGLL,3247.222,N,07954.563,W,162747,A,A*5B
\c:1546360068*54\$GPGLL,3247.2169,N,07954.5599,W,162748.000,A,D*41
\c:1546360069*55\$GPGLL,3247.2169,N,07954.5600,W,162749.000,A,D*43
\c:1546360070*5D\$GPGLL,3247.221,N,07954.563,W,162749,A,A*56
\c:1546360070*5D\$GPGLL,3247.2168,N,07954.5600,W,162750.000,A,D*4A
\c:1546360071*5C\$GPGLL,3247.2168,N,07954.5600,W,162751.000,A,D*4B
\c:1546360072*5F\$GPGLL,3247.221,N,07954.563,W,162751,A,A*5F
\c:1546360072*5F\$GPGLL,3247.2168,N,07954.5601,W,162752.000,A,D*49
\c:1546360074*59\$GPGLL,3247.2167,N,07954.5601,W,162753.000,A,D*47
\c:1546360074*59\$GPGLL,3247.2166,N,07954.5601,W,162754.000,A,D*41
\c:1546360074*59\$GPGLL,3247.221,N,07954.563,W,162753,A,A*5D
\c:1546360075*58\$GPGLL,3247.2166,N,07954.5602,W,162755.000,A,D*43
\c:1546360076*5B\$GPGLL,3247.2165,N,07954.5602,W,162756.000,A,D*43
\c:1546360076*5B\$GPGLL,3247.221,N,07954.563,W,162755,A,A*5B
\c:1546360077*5A\$GPGLL,3247.2164,N,07954.5602,W,162757.000,A,D*43
\c:1546360078*55\$GPGLL,3247.2163,N,07954.5602,W,162758.000,A,D*4B
\c:1546360078*55\$GPGLL,3247.221,N,07954.563,W,162757,A,A*59
\c:1546360079*54\$GPGLL,3247.2163,N,07954.5602,W,162759.000,A,D*4A
\c:1546360080*52\$GPGLL,3247.2163,N,07954.5602,W,162800.000,A,D*49
\c:1546360080*52\$GPGLL,3247.221,N,07954.563,W,162759,A,A*57
\c:1546360081*53\$GPGLL,3247.2163,N,07954.5602,W,162801.000,A,D*48
\c:1546360082*50\$GPGLL,3247.2164,N,07954.5603,W,162802.000,A,D*4D
\c:1546360082*50\$GPGLL,3247.221,N,07954.563,W,162801,A,A*55
\c:1546360083*51\$GPGLL,3247.2164,N,07954.5603,W,162803.000,A,D*4C
\c:1546360084*56\$GPGLL,3247.2164,N,07954.5603,W,162804.000,A,D*4B
\c:1546360084*56\$GPGLL,3247.221,N,07954.564,W,162803,A,A*50
\c:1546360085*57\$GPGLL,3247.2163,N,07954.5603,W,162805.000,A,D*4D
\c:1546360086*54\$GPGLL,3247.2163,N,07954.5603,W,162806.000,A,D*4E
\c:1546360086*54\$GPGLL,3247.221,N,07954.564,W,162805,A,A*56
\c:1546360087*55\$GPGLL,3247.2163,N,07954.5603,W,162807.000,A,D*4F
\c:1546360088*5A\$GPGLL,3247.2162,N,07954.5603,W,162808.000,A,D*41
\c:1546360088*5A\$GPGLL,3247.221,N,07954.564,W,162807,A,A*54
\c:1546360089*5B\$GPGLL,3247.2162,N,07954.5603,W,162809.000,A,D*40
\c:1546360090*53\$GPGLL,3247.2162,N,07954.5603,W,162810.000,A,D*48
\c:1546360090*53\$GPGLL,3247.221,N,07954.564,W,162809,A,A*5A
\c:1546360091*52\$GPGLL,3247.2162,N,07954.5603,W,162811.000,A,D*49
\c:1546360092*51\$GPGLL,3247.2162,N,07954.5603,W,162812.000,A,D*4A
\c:1546360092*51\$GPGLL,3247.221,N,07954.564,W,162811,A,A*53
\c:1546360093*50\$GPGLL,3247.2162,N,07954.5603,W,162813.000,A,D*4B
\c:1546360094*57\$GPGLL,3247.2162,N,07954.5603,W,162814.000,A,D*4C
\c:1546360095*56\$GPGLL,3247.221,N,07954.564,W,162813,A,A*51
\c:1546360095*56\$GPGLL,3247.2162,N,07954.5603,W,162815.000,A,D*4D
\c:1546360096*55\$GPGLL,3247.2162,N,07954.5603,W,162816.000,A,D*4E
\c:1546360097*54\$GPGLL,3247.221,N,07954.564,W,162815,A,A*57
\c:1546360097*54\$GPGLL,3247.2162,N,07954.5603,W,162817.000,A,D*4F
\c:1546360098*5B\$GPGLL,3247.2162,N,07954.5603,W,162818.000,A,D*40
\c:1546360099*5A\$GPGLL,3247.221,N,07954.564,W,162817,A,A*55
\c:1546360099*5A\$GPGLL,3247.2162,N,07954.5603,W,162819.000,A,D*41
\c:1546360100*5B\$GPGLL,3247.2162,N,07954.5603,W,162820.000,A,D*4B
\c:1546360101*5A\$GPGLL,3247.221,N,07954.564,W,162819,A,A*5B
\c:1546360101*5A\$GPGLL,3247.2162,N,07954.5603,W,162821.000,A,D*4A
\c:1546360102*59\$GPGLL,3247.2162,N,07954.5603,W,162822.000,A,D*49
\c:1546360103*58\$GPGLL,3247.221,N,07954.564,W,162821,A,A*50
\c:1546360103*58\$GPGLL,3247.2162,N,07954.5603,W,162823.000,A,D*48
\c:1546360104*5F\$GPGLL,3247.2162,N,07954.5603,W,162824.000,A,D*4F
\c:1546360105*5E\$GPGLL,3247.221,N,07954.564,W,162823,A,A*52
\c:1546360105*5E\$GPGLL,3247.2162,N,07954.5603,W,162825.000,A,D*4E
\c:1546360106*5D\$GPGLL,3247.2162,N,07954.5603,W,162826.000,A,D*4D
\c:1546360107*5C\$GPGLL,3247.221,N,07954.564,W,162826,A,A*57
\c:1546360107*5C\$GPGLL,3247.2162,N,07954.5603,W,162827.000,A,D*4C
\c:1546360108*53\$GPGLL,3247.2162,N,07954.5603,W,162828.000,A,D*43
\c:1546360109*52\$GPGLL,3247.221,N,07954.564,W,162828,A,A*59
\c:1546360109*52\$GPGLL,3247.2162,N,07954.5603,W,162829.000,A,D*42
\c:1546360110*5A\$GPGLL,3247.2162,N,07954.5603,W,162830.000,A,D*4A
\c:1546360111*5B\$GPGLL,3247.221,N,07954.564,W,162830,A,A*50
\c:1546360111*5B\$GPGLL,3247.2162,N,07954.5603,W,162831.000,A,D*4B
\c:1546360112*58\$GPGLL,3247.2162,N,07954.5603,W,162832.000,A,D*48
\c:1546360113*59\$GPGLL,3247.221,N,07954.564,W,162832,A,A*52
\c:1546360113*59\$GPGLL,3247.2162,N,07954.5603,W,162833.000,A,D*49
\c:1546360115*5F\$GPGLL,3247.2162,N,07954.5603,W,162834.000,A,D*4E
\c:1546360115*5F\$GPGLL,3247.2162,N,07954.5603,W,162835.000,A,D*4F
\c:1546360115*5F\$GPGLL,3247.221,N,07954.564,W,162834,A,A*54
\c:1546360116*5C\$GPGLL,3247.2162,N,07954.5603,W,162836.000,A,D*4C
\c:1546360117*5D\$GPGLL,3247.2162,N,07954.5603,W,162837.000,A,D*4D
\c:1546360117*5D\$GPGLL,3247.222,N,07954.565,W,162836,A,A*54
\c:1546360118*52\$GPGLL,3247.2162,N,07954.5603,W,162838.000,A,D*42
\c:1546360119*53\$GPGLL,3247.2162,N,07954.5603,W,162839.000,A,D*43
\c:1546360119*53\$GPGLL,3247.222,N,07954.565,W,162838,A,A*5A
\c:1546360120*59\$GPGLL,3247.2163,N,07954.5603,W,162840.000,A,D*4C
\c:1546360121*58\$GPGLL,3247.2164,N,07954.5603,W,162841.000,A,D*4A
\c:1546360121*58\$GPGLL,3247.223,N,07954.565,W,162840,A,A*54
\c:1546360122*5B\$GPGLL,3247.2165,N,07954.5604,W,162842.000,A,D*4F
\c:1546360123*5A\$GPGLL,3247.2169,N,07954.5604,W,162843.000,A,D*42
\c:1546360123*5A\$GPGLL,3247.224,N,07954.565,W,162842,A,A*51
\c:1546360124*5D\$GPGLL,3247.2173,N,07954.5605,W,162844.000,A,D*4F
\c:1546360125*5C\$GPGLL,3247.2176,N,07954.5606,W,162845.000,A,D*48
\c:1546360125*5C\$GPGLL,3247.225,N,07954.565,W,162844,A,A*56
\c:1546360126*5F\$GPGLL,3247.2179,N,07954.5606,W,162846.000,A,D*44
\c:1546360127*5E\$GPGLL,3247.2183,N,07954.5608,W,162847.000,A,D*4E
\c:1546360127*5E\$GPGLL,3247.225,N,07954.564,W,162846,A,A*55
\c:1546360128*51\$GPGLL,3247.2186,N,07954.5608,W,162848.000,A,D*44
\c:1546360129*50\$GPGLL,3247.2189,N,07954.5609,W,162849.000,A,D*4B
\c:1546360129*50\$GPGLL,3247.226,N,07954.564,W,162848,A,A*58
\c:1546360130*58\$GPGLL,3247.2192,N,07954.5609,W,162850.000,A,D*49
\c:1546360131*59\$GPGLL,3247.2195,N,07954.5610,W,162851.000,A,D*47
\c:1546360131*59\$GPGLL,3247.226,N,07954.563,W,162850,A,A*56
\c:1546360132*5A\$GPGLL,3247.2200,N,07954.5610,W,162852.000,A,D*4B
\c:1546360133*5B\$GPGLL,3247.2203,N,07954.5609,W,162853.000,A,D*41
\c:1546360133*5B\$GPGLL,3247.227,N,07954.563,W,162852,A,A*55
\c:1546360134*5C\$GPGLL,3247.2205,N,07954.5607,W,162854.000,A,D*4E
\c:1546360135*5D\$GPGLL,3247.2208,N,07954.5605,W,162855.000,A,D*40
\c:1546360135*5D\$GPGLL,3247.227,N,07954.563,W,162854,A,A*53
\c:1546360136*5E\$GPGLL,3247.2211,N,07954.5603,W,162856.000,A,D*4D
\c:1546360137*5F\$GPGLL,3247.2213,N,07954.5602,W,162857.000,A,D*4F
\c:1546360138*50\$GPGLL,3247.227,N,07954.562,W,162856,A,A*50
\c:1546360138*50\$GPGLL,3247.2215,N,07954.5601,W,162858.000,A,D*45
\c:1546360139*51\$GPGLL,3247.2219,N,07954.5600,W,162859.000,A,D*49
\c:1546360140*5F\$GPGLL,3247.227,N,07954.561,W,162858,A,A*5D
\c:1546360140*5F\$GPGLL,3247.2222,N,07954.5599,W,162900.000,A,D*4F
\c:1546360141*5E\$GPGLL,3247.2223,N,07954.5597,W,162901.000,A,D*41
\c:1546360142*5D\$GPGLL,3247.227,N,07954.560,W,162900,A,A*50
\c:1546360142*5D\$GPGLL,3247.2224,N,07954.5595,W,162902.000,A,D*47
\c:1546360143*5C\$GPGLL,3247.2228,N,07954.5594,W,162903.000,A,D*4B
\c:1546360144*5B\$GPGLL,3247.227,N,07954.560,W,162902,A,A*52
\c:1546360144*5B\$GPGLL,3247.2230,N,07954.5593,W,162904.000,A,D*42
\c:1546360145*5A\$GPGLL,3247.2233,N,07954.5592,W,162905.000,A,D*41
\c:1546360146*59\$GPGLL,3247.227,N,07954.559,W,162904,A,A*5E
\c:1546360146*59\$GPGLL,3247.2235,N,07954.5592,W,162906.000,A,D*44
\c:1546360147*58\$GPGLL,3247.2235,N,07954.5591,W,162907.000,A,D*46
\c:1546360148*57\$GPGLL,3247.228,N,07954.559,W,162906,A,A*53
\c:1546360148*57\$GPGLL,3247.2234,N,07954.5592,W,162908.000,A,D*4B
\c:1546360149*56\$GPGLL,3247.2234,N,07954.5592,W,162909.000,A,D*4A
\c:1546360150*5E\$GPGLL,3247.228,N,07954.559,W,162908,A,A*5D
\c:1546360150*5E\$GPGLL,3247.2234,N,07954.5592,W,162910.000,A,D*42
\c:1546360151*5F\$GPGLL,3247.2237,N,07954.5592,W,162911.000,A,D*40
\c:1546360152*5C\$GPGLL,3247.228,N,07954.559,W,162910,A,A*54
\c:1546360152*5C\$GPGLL,3247.2238,N,07954.5592,W,162912.000,A,D*4C
\c:1546360153*5D\$GPGLL,3247.2239,N,07954.5592,W,162913.000,A,D*4C
\c:1546360154*5A\$GPGLL,3247.227,N,07954.559,W,162912,A,A*59
\c:1546360154*5A\$GPGLL,3247.2239,N,07954.5593,W,162914.000,A,D*4A
\c:1546360155*5B\$GPGLL,3247.2240,N,07954.5594,W,162915.000,A,D*42
\c:1546360156*58\$GPGLL,3247.227,N,07954.560,W,162914,A,A*55
\c:1546360156*58\$GPGLL,3247.2241,N,07954.5596,W,162916.000,A,D*42
\c:1546360157*59\$GPGLL,3247.2241,N,07954.5603,W,162917.000,A,D*4C
\c:1546360158*56\$GPGLL,3247.227,N,07954.561,W,162916,A,A*56
\c:1546360158*56\$GPGLL,3247.2241,N,07954.5608,W,162918.000,A,D*48
\c:1546360159*57\$GPGLL,3247.2240,N,07954.5614,W,162919.000,A,D*45
\c:1546360160*5D\$GPGLL,3247.2238,N,07954.5620,W,162920.000,A,D*47
\c:1546360160*5D\$GPGLL,3247.226,N,07954.563,W,162918,A,A*5B
\c:1546360161*5C\$GPGLL,3247.2237,N,07954.5626,W,162921.000,A,D*4F
\c:1546360162*5F\$GPGLL,3247.2236,N,07954.5633,W,162922.000,A,D*49
\c:1546360162*5F\$GPGLL,3247.226,N,07954.564,W,162920,A,A*57
\c:1546360163*5E\$GPGLL,3247.2234,N,07954.5640,W,162923.000,A,D*4E
\c:1546360164*59\$GPGLL,3247.2233,N,07954.5647,W,162924.000,A,D*49
\c:1546360164*59\$GPGLL,3247.225,N,07954.565,W,162922,A,A*57
\c:1546360165*58\$GPGLL,3247.2232,N,07954.5655,W,162925.000,A,D*4A
\c:1546360166*5B\$GPGLL,3247.2238,N,07954.5667,W,162926.000,A,D*42
\c:1546360166*5B\$GPGLL,3247.225,N,07954.567,W,162924,A,A*53
\c:1546360167*5A\$GPGLL,3247.2238,N,07954.5677,W,162927.000,A,D*42
\c:1546360168*55\$GPGLL,3247.2237,N,07954.5686,W,162928.000,A,D*4C
\c:1546360168*55\$GPGLL,3247.225,N,07954.569,W,162926,A,A*5F
\c:1546360169*54\$GPGLL,3247.2235,N,07954.5697,W,162929.000,A,D*4F
\c:1546360170*5C\$GPGLL,3247.2234,N,07954.5708,W,162930.000,A,D*41
\c:1546360170*5C\$GPGLL,3247.224,N,07954.570,W,162929,A,A*59
\c:1546360171*5D\$GPGLL,3247.2233,N,07954.5720,W,162931.000,A,D*4D
\c:1546360172*5E\$GPGLL,3247.2231,N,07954.5731,W,162932.000,A,D*4C
\c:1546360172*5E\$GPGLL,3247.224,N,07954.573,W,162931,A,A*53
\c:1546360173*5F\$GPGLL,3247.2230,N,07954.5743,W,162933.000,A,D*49
\c:1546360174*58\$GPGLL,3247.2231,N,07954.5753,W,162934.000,A,D*4E
\c:1546360174*58\$GPGLL,3247.224,N,07954.575,W,162933,A,A*57
\c:1546360175*59\$GPGLL,3247.2231,N,07954.5765,W,162935.000,A,D*4A
\c:1546360176*5A\$GPGLL,3247.2231,N,07954.5776,W,162936.000,A,D*4B
\c:1546360176*5A\$GPGLL,3247.224,N,07954.577,W,162935,A,A*53
\c:1546360177*5B\$GPGLL,3247.2233,N,07954.5787,W,162937.000,A,D*46
\c:1546360178*54\$GPGLL,3247.2234,N,07954.5797,W,162938.000,A,D*4F
\c:1546360178*54\$GPGLL,3247.224,N,07954.580,W,162937,A,A*59
\c:1546360179*55\$GPGLL,3247.2234,N,07954.5809,W,162939.000,A,D*46
\c:1546360180*53\$GPGLL,3247.2233,N,07954.5821,W,162940.000,A,D*45
\c:1546360181*52\$GPGLL,3247.224,N,07954.582,W,162939,A,A*55
\c:1546360181*52\$GPGLL,3247.2232,N,07954.5834,W,162941.000,A,D*41
\c:1546360182*51\$GPGLL,3247.2232,N,07954.5847,W,162942.000,A,D*46
\c:1546360183*50\$GPGLL,3247.224,N,07954.585,W,162941,A,A*5D
\c:1546360183*50\$GPGLL,3247.2230,N,07954.5859,W,162943.000,A,D*4A
\c:1546360184*57\$GPGLL,3247.2229,N,07954.5871,W,162944.000,A,D*4F
\c:1546360185*56\$GPGLL,3247.224,N,07954.587,W,162943,A,A*5D
\c:1546360185*56\$GPGLL,3247.2229,N,07954.5884,W,162945.000,A,D*44
\c:1546360186*55\$GPGLL,3247.2229,N,07954.5897,W,162946.000,A,D*45
\c:1546360187*54\$GPGLL,3247.224,N,07954.590,W,162945,A,A*5D
\c:1546360187*54\$GPGLL,3247.2228,N,07954.5910,W,162947.000,A,D*4B
\c:1546360188*5B\$GPGLL,3247.2228,N,07954.5923,W,162948.000,A,D*44
\c:1546360189*5A\$GPGLL,3247.224,N,07954.592,W,162947,A,A*5D
\c:1546360189*5A\$GPGLL,3247.2230,N,07954.5936,W,162949.000,A,D*48
\c:1546360190*52\$GPGLL,3247.2230,N,07954.5950,W,162950.000,A,D*40
\c:1546360191*53\$GPGLL,3247.224,N,07954.595,W,162950,A,A*5C
\c:1546360192*50\$GPGLL,3247.2230,N,07954.5963,W,162951.000,A,D*41
\c:1546360192*50\$GPGLL,3247.2231,N,07954.5977,W,162952.000,A,D*46
\c:1546360193*51\$GPGLL,3247.224,N,07954.598,W,162952,A,A*53
\c:1546360193*51\$GPGLL,3247.2231,N,07954.5991,W,162953.000,A,D*4F
\c:1546360194*56\$GPGLL,3247.2231,N,07954.6005,W,162954.000,A,D*4F
\c:1546360195*57\$GPGLL,3247.224,N,07954.601,W,162954,A,A*56
\c:1546360195*57\$GPGLL,3247.2230,N,07954.6018,W,162955.000,A,D*43
\c:1546360196*54\$GPGLL,3247.2229,N,07954.6031,W,162956.000,A,D*43
\c:1546360197*55\$GPGLL,3247.224,N,07954.603,W,162956,A,A*56
\c:1546360197*55\$GPGLL,3247.2226,N,07954.6045,W,162957.000,A,D*4E
\c:1546360198*5A\$GPGLL,3247.2226,N,07954.6059,W,162958.000,A,D*4C
\c:1546360199*5B\$GPGLL,3247.224,N,07954.606,W,162958,A,A*5D
\c:1546360199*5B\$GPGLL,3247.2226,N,07954.6073,W,162959.000,A,D*45
\c:1546360200*58\$GPGLL,3247.2225,N,07954.6085,W,163000.000,A,D*4B
\c:1546360201*59\$GPGLL,3247.224,N,07954.609,W,163000,A,A*57
\c:1546360201*59\$GPGLL,3247.2224,N,07954.6098,W,163001.000,A,D*47
\c:1546360202*5A\$GPGLL,3247.2223,N,07954.6111,W,163002.000,A,D*43
\c:1546360203*5B\$GPGLL,3247.2223,N,07954.6124,W,163003.000,A,D*44
\c:1546360203*5B\$GPGLL,3247.223,N,07954.612,W,163002,A,A*58
\c:1546360204*5C\$GPGLL,3247.2222,N,07954.6137,W,163004.000,A,D*40
\c:1546360205*5D\$GPGLL,3247.2222,N,07954.6151,W,163005.000,A,D*41
\c:1546360205*5D\$GPGLL,3247.224,N,07954.615,W,163004,A,A*5E
\c:1546360206*5E\$GPGLL,3247.2221,N,07954.6165,W,163006.000,A,D*46
\c:1546360207*5F\$GPGLL,3247.2221,N,07954.6179,W,163007.000,A,D*4A
\c:1546360207*5F\$GPGLL,3247.224,N,07954.618,W,163006,A,A*51
\c:1546360208*50\$GPGLL,3247.2221,N,07954.6194,W,163008.000,A,D*46
\c:1546360209*51\$GPGLL,3247.2221,N,07954.6208,W,163009.000,A,D*41
\c:1546360209*51\$GPGLL,3247.223,N,07954.621,W,163008,A,A*52
\c:1546360210*59\$GPGLL,3247.2221,N,07954.6223,W,163010.000,A,D*40
\c:1546360211*58\$GPGLL,3247.2222,N,07954.6237,W,163011.000,A,D*47
\c:1546360211*58\$GPGLL,3247.223,N,07954.624,W,163010,A,A*5E
\c:1546360212*5B\$GPGLL,3247.2223,N,07954.6253,W,163012.000,A,D*47
\c:1546360213*5A\$GPGLL,3247.2224,N,07954.6269,W,163013.000,A,D*48
\c:1546360213*5A\$GPGLL,3247.223,N,07954.626,W,163012,A,A*5E
\c:1546360214*5D\$GPGLL,3247.2225,N,07954.6284,W,163014.000,A,D*4D
\c:1546360215*5C\$GPGLL,3247.2225,N,07954.6300,W,163015.000,A,D*41
\c:1546360215*5C\$GPGLL,3247.223,N,07954.629,W,163014,A,A*57
\c:1546360216*5F\$GPGLL,3247.2225,N,07954.6315,W,163016.000,A,D*46
\c:1546360217*5E\$GPGLL,3247.2226,N,07954.6331,W,163017.000,A,D*42
\c:1546360217*5E\$GPGLL,3247.223,N,07954.631,W,163016,A,A*5C
\c:1546360218*51\$GPGLL,3247.2227,N,07954.6346,W,163018.000,A,D*4C
\c:1546360219*50\$GPGLL,3247.2226,N,07954.6362,W,163019.000,A,D*4A
\c:1546360219*50\$GPGLL,3247.223,N,07954.634,W,163018,A,A*57
\c:1546360220*5A\$GPGLL,3247.2226,N,07954.6376,W,163020.000,A,D*45
\c:1546360221*5B\$GPGLL,3247.2226,N,07954.6391,W,163021.000,A,D*4D
\c:1546360221*5B\$GPGLL,3247.223,N,07954.639,W,163020,A,A*51
\c:1546360222*58\$GPGLL,3247.2227,N,07954.6406,W,163022.000,A,D*46
\c:1546360223*59\$GPGLL,3247.2226,N,07954.6420,W,163023.000,A,D*42
\c:1546360224*5E\$GPGLL,3247.223,N,07954.641,W,163022,A,A*5C
\c:1546360224*5E\$GPGLL,3247.2225,N,07954.6435,W,163024.000,A,D*42
\c:1546360225*5F\$GPGLL,3247.2222,N,07954.6449,W,163025.000,A,D*4F
\c:1546360226*5C\$GPGLL,3247.223,N,07954.645,W,163024,A,A*5E
\c:1546360226*5C\$GPGLL,3247.2218,N,07954.6462,W,163026.000,A,D*4C
\c:1546360227*5D\$GPGLL,3247.2214,N,07954.6477,W,163027.000,A,D*45
\c:1546360228*52\$GPGLL,3247.222,N,07954.647,W,163026,A,A*5F
\c:1546360228*52\$GPGLL,3247.2212,N,07954.6495,W,163028.000,A,D*40
\c:1546360229*53\$GPGLL,3247.2206,N,07954.6509,W,163029.000,A,D*40
\c:1546360230*5B\$GPGLL,3247.222,N,07954.650,W,163028,A,A*57
\c:1546360230*5B\$GPGLL,3247.2201,N,07954.6524,W,163030.000,A,D*40
\c:1546360231*5A\$GPGLL,3247.2193,N,07954.6536,W,163031.000,A,D*4A
\c:1546360232*59\$GPGLL,3247.221,N,07954.652,W,163030,A,A*5F
\c:1546360233*58\$GPGLL,3247.2182,N,07954.6544,W,163032.000,A,D*4C
\c:1546360233*58\$GPGLL,3247.2170,N,07954.6551,W,163033.000,A,D*44
\c:1546360234*5F\$GPGLL,3247.219,N,07954.654,W,163033,A,A*51
\c:1546360234*5F\$GPGLL,3247.2159,N,07954.6557,W,163034.000,A,D*4E
\c:1546360235*5E\$GPGLL,3247.2149,N,07954.6561,W,163035.000,A,D*4B
\c:1546360236*5D\$GPGLL,3247.217,N,07954.656,W,163035,A,A*5B
\c:1546360236*5D\$GPGLL,3247.2137,N,07954.6564,W,163036.000,A,D*44
\c:1546360237*5C\$GPGLL,3247.2124,N,07954.6565,W,163037.000,A,D*46
\c:1546360238*53\$GPGLL,3247.215,N,07954.656,W,163037,A,A*5B
\c:1546360238*53\$GPGLL,3247.2111,N,07954.6567,W,163038.000,A,D*4D
\c:1546360239*52\$GPGLL,3247.2097,N,07954.6568,W,163039.000,A,D*4C
\c:1546360240*5C\$GPGLL,3247.212,N,07954.657,W,163039,A,A*53
\c:1546360240*5C\$GPGLL,3247.2084,N,07954.6569,W,163040.000,A,D*41
\c:1546360241*5D\$GPGLL,3247.2070,N,07954.6571,W,163041.000,A,D*42
\c:1546360242*5E\$GPGLL,3247.210,N,07954.657,W,163041,A,A*5E
\c:1546360242*5E\$GPGLL,3247.2057,N,07954.6573,W,163042.000,A,D*46
\c:1546360243*5F\$GPGLL,3247.2045,N,07954.6575,W,163043.000,A,D*42
\c:1546360244*58\$GPGLL,3247.2033,N,07954.6577,W,163044.000,A,D*46
\c:1546360244*58\$GPGLL,3247.207,N,07954.657,W,163043,A,A*5A
\c:1546360245*59\$GPGLL,3247.2022,N,07954.6581,W,163045.000,A,D*4E
\c:1546360246*5A\$GPGLL,3247.2010,N,07954.6585,W,163046.000,A,D*48
\c:1546360246*5A\$GPGLL,3247.205,N,07954.657,W,163045,A,A*5E
\c:1546360247*5B\$GPGLL,3247.1999,N,07954.6590,W,163047.000,A,D*46
\c:1546360248*54\$GPGLL,3247.1987,N,07954.6595,W,163048.000,A,D*43
\c:1546360248*54\$GPGLL,3247.202,N,07954.658,W,163047,A,A*54
\c:1546360249*55\$GPGLL,3247.1976,N,07954.6600,W,163049.000,A,D*43
\c:1546360250*5D\$GPGLL,3247.1965,N,07954.6607,W,163050.000,A,D*4E
\c:1546360250*5D\$GPGLL,3247.200,N,07954.659,W,163049,A,A*59
\c:1546360251*5C\$GPGLL,3247.1954,N,07954.6615,W,163051.000,A,D*4E
\c:1546360252*5F\$GPGLL,3247.1944,N,07954.6624,W,163052.000,A,D*4E
\c:1546360252*5F\$GPGLL,3247.197,N,07954.660,W,163051,A,A*57
\c:1546360253*5E\$GPGLL,3247.1935,N,07954.6633,W,163053.000,A,D*4F
\c:1546360254*59\$GPGLL,3247.1925,N,07954.6642,W,163054.000,A,D*4F
\c:1546360254*59\$GPGLL,3247.195,N,07954.661,W,163053,A,A*56
\c:1546360255*58\$GPGLL,3247.1915,N,07954.6652,W,163055.000,A,D*4C
\c:1546360256*5B\$GPGLL,3247.1907,N,07954.6662,W,163056.000,A,D*4F
\c:1546360256*5B\$GPGLL,3247.193,N,07954.663,W,163055,A,A*54
\c:1546360257*5A\$GPGLL,3247.1899,N,07954.6672,W,163057.000,A,D*49
\c:1546360258*55\$GPGLL,3247.1892,N,07954.6683,W,163058.000,A,D*43
\c:1546360258*55\$GPGLL,3247.191,N,07954.665,W,163057,A,A*52
\c:1546360259*54\$GPGLL,3247.1883,N,07954.6694,W,163059.000,A,D*44
\c:1546360260*5E\$GPGLL,3247.1876,N,07954.6706,W,163100.000,A,D*49
\c:1546360260*5E\$GPGLL,3247.189,N,07954.668,W,163059,A,A*58
\c:1546360261*5F\$GPGLL,3247.1869,N,07954.6717,W,163101.000,A,D*46
\c:1546360262*5C\$GPGLL,3247.1861,N,07954.6728,W,163102.000,A,D*41
\c:1546360262*5C\$GPGLL,3247.188,N,07954.669,W,163101,A,A*54
\c:1546360263*5D\$GPGLL,3247.1852,N,07954.6739,W,163103.000,A,D*40
\c:1546360264*5A\$GPGLL,3247.1845,N,07954.6750,W,163104.000,A,D*4E
\c:1546360264*5A\$GPGLL,3247.186,N,07954.672,W,163103,A,A*52
\c:1546360265*5B\$GPGLL,3247.1837,N,07954.6763,W,163105.000,A,D*4A
\c:1546360266*58\$GPGLL,3247.1830,N,07954.6778,W,163106.000,A,D*44
\c:1546360267*59\$GPGLL,3247.184,N,07954.675,W,163105,A,A*51
\c:1546360267*59\$GPGLL,3247.1822,N,07954.6791,W,163107.000,A,D*41
\c:1546360268*56\$GPGLL,3247.1816,N,07954.6804,W,163108.000,A,D*4A
\c:1546360269*57\$GPGLL,3247.183,N,07954.677,W,163107,A,A*56
\c:1546360269*57\$GPGLL,3247.1809,N,07954.6816,W,163109.000,A,D*46
\c:1546360270*5F\$GPGLL,3247.1803,N,07954.6828,W,163110.000,A,D*49
\c:1546360271*5E\$GPGLL,3247.181,N,07954.679,W,163109,A,A*54
\c:1546360271*5E\$GPGLL,3247.1798,N,07954.6840,W,163111.000,A,D*4B
\c:1546360272*5D\$GPGLL,3247.1793,N,07954.6851,W,163112.000,A,D*43
\c:1546360273*5C\$GPGLL,3247.180,N,07954.682,W,163111,A,A*58
\c:1546360274*5B\$GPGLL,3247.1787,N,07954.6864,W,163113.000,A,D*41
\c:1546360274*5B\$GPGLL,3247.1781,N,07954.6876,W,163114.000,A,D*43
\c:1546360275*5A\$GPGLL,3247.179,N,07954.684,W,163113,A,A*5A
\c:1546360275*5A\$GPGLL,3247.1774,N,07954.6889,W,163115.000,A,D*48
\c:1546360276*59\$GPGLL,3247.1768,N,07954.6901,W,163116.000,A,D*47
\c:1546360277*58\$GPGLL,3247.177,N,07954.687,W,163115,A,A*51
\c:1546360277*58\$GPGLL,3247.1762,N,07954.6914,W,163117.000,A,D*48
\c:1546360278*57\$GPGLL,3247.1755,N,07954.6927,W,163118.000,A,D*43
\c:1546360279*56\$GPGLL,3247.176,N,07954.689,W,163117,A,A*5C
\c:1546360279*56\$GPGLL,3247.1749,N,07954.6939,W,163119.000,A,D*40
\c:1546360280*50\$GPGLL,3247.1742,N,07954.6950,W,163120.000,A,D*4E
\c:1546360281*51\$GPGLL,3247.175,N,07954.692,W,163119,A,A*5B
\c:1546360281*51\$GPGLL,3247.1736,N,07954.6961,W,163121.000,A,D*4E
\c:1546360282*52\$GPGLL,3247.1731,N,07954.6973,W,163122.000,A,D*49
\c:1546360283*53\$GPGLL,3247.173,N,07954.694,W,163121,A,A*50
\c:1546360283*53\$GPGLL,3247.1725,N,07954.6983,W,163123.000,A,D*42
\c:1546360284*54\$GPGLL,3247.1719,N,07954.6995,W,163124.000,A,D*4D
\c:1546360285*55\$GPGLL,3247.172,N,07954.696,W,163123,A,A*51
\c:1546360285*55\$GPGLL,3247.1713,N,07954.7006,W,163125.000,A,D*44
\c:1546360286*56\$GPGLL,3247.1707,N,07954.7017,W,163126.000,A,D*42
\c:1546360287*57\$GPGLL,3247.170,N,07954.700,W,163125,A,A*5B
\c:1546360287*57\$GPGLL,3247.1700,N,07954.7029,W,163127.000,A,D*49
\c:1546360288*58\$GPGLL,3247.1694,N,07954.7041,W,163128.000,A,D*44
\c:1546360289*59\$GPGLL,3247.1689,N,07954.7053,W,163129.000,A,D*4A
\c:1546360289*59\$GPGLL,3247.169,N,07954.702,W,163127,A,A*53
\c:1546360290*51\$GPGLL,3247.1686,N,07954.7059,W,163130.000,A,D*47
\c:1546360291*50\$GPGLL,3247.1681,N,07954.7069,W,163131.000,A,D*42
\c:1546360291*50\$GPGLL,3247.168,N,07954.705,W,163129,A,A*5B
\c:1546360292*53\$GPGLL,3247.1675,N,07954.7081,W,163132.000,A,D*4C
\c:1546360293*52\$GPGLL,3247.1669,N,07954.7094,W,163133.000,A,D*44
\c:1546360293*52\$GPGLL,3247.166,N,07954.707,W,163131,A,A*5E
\c:1546360294*55\$GPGLL,3247.1662,N,07954.7107,W,163134.000,A,D*43
\c:1546360295*54\$GPGLL,3247.1654,N,07954.7120,W,163135.000,A,D*42
\c:1546360295*54\$GPGLL,3247.165,N,07954.710,W,163133,A,A*59
\c:1546360296*57\$GPGLL,3247.1646,N,07954.7132,W,163136.000,A,D*41
\c:1546360297*56\$GPGLL,3247.1639,N,07954.7146,W,163137.000,A,D*4B
\c:1546360297*56\$GPGLL,3247.164,N,07954.712,W,163135,A,A*5C
\c:1546360298*59\$GPGLL,3247.1633,N,07954.7158,W,163138.000,A,D*41
\c:1546360299*58\$GPGLL,3247.1625,N,07954.7171,W,163139.000,A,D*4C
\c:1546360299*58\$GPGLL,3247.162,N,07954.715,W,163138,A,A*50
\c:1546360300*59\$GPGLL,3247.1618,N,07954.7183,W,163140.000,A,D*41
\c:1546360301*58\$GPGLL,3247.1611,N,07954.7195,W,163141.000,A,D*4E
\c:1546360301*58\$GPGLL,3247.161,N,07954.717,W,163140,A,A*5E
\c:1546360302*5B\$GPGLL,3247.1605,N,07954.7207,W,163142.000,A,D*40
\c:1546360303*5A\$GPGLL,3247.1600,N,07954.7220,W,163143.000,A,D*41
\c:1546360303*5A\$GPGLL,3247.160,N,07954.719,W,163142,A,A*53
\c:1546360304*5D\$GPGLL,3247.1594,N,07954.7232,W,163144.000,A,D*4B
\c:1546360305*5C\$GPGLL,3247.1589,N,07954.7244,W,163145.000,A,D*47
\c:1546360305*5C\$GPGLL,3247.159,N,07954.722,W,163144,A,A*57
\c:1546360306*5F\$GPGLL,3247.1583,N,07954.7255,W,163146.000,A,D*4E
\c:1546360307*5E\$GPGLL,3247.1577,N,07954.7267,W,163147.000,A,D*45
\c:1546360307*5E\$GPGLL,3247.158,N,07954.724,W,163146,A,A*52
\c:1546360308*51\$GPGLL,3247.1572,N,07954.7279,W,163148.000,A,D*40
\c:1546360309*50\$GPGLL,3247.1566,N,07954.7291,W,163149.000,A,D*42
\c:1546360310*58\$GPGLL,3247.156,N,07954.727,W,163148,A,A*51
\c:1546360310*58\$GPGLL,3247.1561,N,07954.7303,W,163150.000,A,D*47
\c:1546360311*59\$GPGLL,3247.1556,N,07954.7316,W,163151.000,A,D*46
\c:1546360312*5A\$GPGLL,3247.155,N,07954.729,W,163150,A,A*55
\c:1546360312*5A\$GPGLL,3247.1550,N,07954.7329,W,163152.000,A,D*4F
\c:1546360313*5B\$GPGLL,3247.1545,N,07954.7341,W,163153.000,A,D*44
\c:1546360314*5C\$GPGLL,3247.154,N,07954.732,W,163152,A,A*5C
\c:1546360314*5C\$GPGLL,3247.1540,N,07954.7352,W,163154.000,A,D*44
\c:1546360315*5D\$GPGLL,3247.1534,N,07954.7363,W,163155.000,A,D*44
\c:1546360316*5E\$GPGLL,3247.153,N,07954.734,W,163154,A,A*5B
\c:1546360316*5E\$GPGLL,3247.1529,N,07954.7375,W,163156.000,A,D*4C
\c:1546360317*5F\$GPGLL,3247.1523,N,07954.7386,W,163157.000,A,D*4B
\c:1546360318*50\$GPGLL,3247.152,N,07954.736,W,163157,A,A*5B
\c:1546360318*50\$GPGLL,3247.1515,N,07954.7398,W,163158.000,A,D*4E
\c:1546360319*51\$GPGLL,3247.1508,N,07954.7410,W,163159.000,A,D*44
\c:1546360320*5B\$GPGLL,3247.151,N,07954.739,W,163159,A,A*59
\c:1546360320*5B\$GPGLL,3247.1501,N,07954.7422,W,163200.000,A,D*43
\c:1546360321*5A\$GPGLL,3247.1495,N,07954.7435,W,163201.000,A,D*48
\c:1546360322*59\$GPGLL,3247.149,N,07954.741,W,163201,A,A*51
\c:1546360322*59\$GPGLL,3247.1488,N,07954.7447,W,163202.000,A,D*42
\c:1546360323*58\$GPGLL,3247.1481,N,07954.7459,W,163203.000,A,D*45
\c:1546360324*5F\$GPGLL,3247.148,N,07954.744,W,163203,A,A*57
\c:1546360324*5F\$GPGLL,3247.1476,N,07954.7471,W,163204.000,A,D*40
\c:1546360325*5E\$GPGLL,3247.1470,N,07954.7482,W,163205.000,A,D*4B
\c:1546360326*5D\$GPGLL,3247.146,N,07954.746,W,163205,A,A*5D
\c:1546360326*5D\$GPGLL,3247.1464,N,07954.7496,W,163206.000,A,D*48
\c:1546360327*5C\$GPGLL,3247.1458,N,07954.7510,W,163207.000,A,D*49
\c:1546360328*53\$GPGLL,3247.145,N,07954.748,W,163207,A,A*52
\c:1546360328*53\$GPGLL,3247.1452,N,07954.7523,W,163208.000,A,D*4C
\c:1546360329*52\$GPGLL,3247.1446,N,07954.7536,W,163209.000,A,D*4C
\c:1546360330*5A\$GPGLL,3247.1439,N,07954.7546,W,163210.000,A,D*4B
\c:1546360330*5A\$GPGLL,3247.144,N,07954.750,W,163209,A,A*54
\c:1546360331*5B\$GPGLL,3247.1432,N,07954.7556,W,163211.000,A,D*40
\c:1546360332*58\$GPGLL,3247.1424,N,07954.7567,W,163212.000,A,D*46
\c:1546360332*58\$GPGLL,3247.142,N,07954.753,W,163211,A,A*58
\c:1546360333*59\$GPGLL,3247.1417,N,07954.7577,W,163213.000,A,D*46
\c:1546360334*5E\$GPGLL,3247.1409,N,07954.7588,W,163214.000,A,D*4E
\c:1546360334*5E\$GPGLL,3247.141,N,07954.755,W,163213,A,A*5F
\c:1546360335*5F\$GPGLL,3247.1401,N,07954.7599,W,163215.000,A,D*47
\c:1546360336*5C\$GPGLL,3247.1393,N,07954.7610,W,163216.000,A,D*4A
\c:1546360336*5C\$GPGLL,3247.139,N,07954.757,W,163215,A,A*54
\c:1546360337*5D\$GPGLL,3247.1387,N,07954.7622,W,163217.000,A,D*4F
\c:1546360338*52\$GPGLL,3247.1380,N,07954.7634,W,163218.000,A,D*40
\c:1546360338*52\$GPGLL,3247.138,N,07954.759,W,163217,A,A*59
\c:1546360339*53\$GPGLL,3247.1373,N,07954.7646,W,163219.000,A,D*48
\c:1546360340*5D\$GPGLL,3247.1366,N,07954.7657,W,163220.000,A,D*46
\c:1546360340*5D\$GPGLL,3247.136,N,07954.762,W,163219,A,A*51
\c:1546360341*5C\$GPGLL,3247.1359,N,07954.7668,W,163221.000,A,D*47
\c:1546360342*5F\$GPGLL,3247.1352,N,07954.7679,W,163222.000,A,D*4F
\c:1546360342*5F\$GPGLL,3247.135,N,07954.763,W,163221,A,A*58
\c:1546360343*5E\$GPGLL,3247.1344,N,07954.7691,W,163223.000,A,D*4F
\c:1546360344*59\$GPGLL,3247.1336,N,07954.7705,W,163224.000,A,D*41
\c:1546360344*59\$GPGLL,3247.133,N,07954.766,W,163223,A,A*59
\c:1546360345*58\$GPGLL,3247.1328,N,07954.7717,W,163225.000,A,D*4C
\c:1546360346*5B\$GPGLL,3247.1321,N,07954.7730,W,163226.000,A,D*43
\c:1546360346*5B\$GPGLL,3247.132,N,07954.768,W,163225,A,A*50
\c:1546360347*5A\$GPGLL,3247.1314,N,07954.7741,W,163227.000,A,D*42
\c:1546360348*55\$GPGLL,3247.1307,N,07954.7753,W,163228.000,A,D*4C
\c:1546360348*55\$GPGLL,3247.130,N,07954.770,W,163227,A,A*59
\c:1546360349*54\$GPGLL,3247.1301,N,07954.7764,W,163229.000,A,D*4F
\c:1546360350*5C\$GPGLL,3247.1295,N,07954.7776,W,163230.000,A,D*48
\c:1546360351*5D\$GPGLL,3247.129,N,07954.773,W,163229,A,A*5C
\c:1546360351*5D\$GPGLL,3247.1288,N,07954.7789,W,163231.000,A,D*45
\c:1546360352*5E\$GPGLL,3247.1282,N,07954.7799,W,163232.000,A,D*4D
\c:1546360353*5F\$GPGLL,3247.127,N,07954.776,W,163231,A,A*5E
\c:1546360353*5F\$GPGLL,3247.1276,N,07954.7808,W,163233.000,A,D*40
\c:1546360354*58\$GPGLL,3247.1270,N,07954.7820,W,163234.000,A,D*4B
\c:1546360355*59\$GPGLL,3247.125,N,07954.778,W,163233,A,A*50
\c:1546360355*59\$GPGLL,3247.1263,N,07954.7832,W,163235.000,A,D*4B
\c:1546360356*5A\$GPGLL,3247.1257,N,07954.7844,W,163236.000,A,D*4E
\c:1546360357*5B\$GPGLL,3247.124,N,07954.781,W,163235,A,A*51
\c:1546360357*5B\$GPGLL,3247.1246,N,07954.7856,W,163237.000,A,D*4C
\c:1546360358*54\$GPGLL,3247.1237,N,07954.7869,W,163238.000,A,D*49
\c:1546360359*55\$GPGLL,3247.123,N,07954.783,W,163237,A,A*56
\c:1546360359*55\$GPGLL,3247.1231,N,07954.7880,W,163239.000,A,D*49
\c:1546360360*5F\$GPGLL,3247.1225,N,07954.7891,W,163240.000,A,D*42
\c:1546360361*5E\$GPGLL,3247.121,N,07954.785,W,163239,A,A*5C
\c:1546360361*5E\$GPGLL,3247.1215,N,07954.7900,W,163241.000,A,D*49
\c:1546360362*5D\$GPGLL,3247.1206,N,07954.7910,W,163242.000,A,D*49
\c:1546360363*5C\$GPGLL,3247.120,N,07954.787,W,163241,A,A*50
\c:1546360363*5C\$GPGLL,3247.1196,N,07954.7920,W,163243.000,A,D*41
\c:1546360364*5B\$GPGLL,3247.1186,N,07954.7929,W,163244.000,A,D*4E
\c:1546360365*5A\$GPGLL,3247.119,N,07954.790,W,163244,A,A*59
\c:1546360365*5A\$GPGLL,3247.1177,N,07954.7939,W,163245.000,A,D*40
\c:1546360366*59\$GPGLL,3247.1168,N,07954.7949,W,163246.000,A,D*4A
\c:1546360367*58\$GPGLL,3247.117,N,07954.792,W,163246,A,A*57
\c:1546360367*58\$GPGLL,3247.1158,N,07954.7958,W,163247.000,A,D*48
\c:1546360368*57\$GPGLL,3247.1148,N,07954.7968,W,163248.000,A,D*45
\c:1546360369*56\$GPGLL,3247.115,N,07954.793,W,163248,A,A*5A
\c:1546360369*56\$GPGLL,3247.1137,N,07954.7977,W,163249.000,A,D*42
\c:1546360370*5E\$GPGLL,3247.1128,N,07954.7986,W,163250.000,A,D*4A
\c:1546360371*5F\$GPGLL,3247.113,N,07954.795,W,163250,A,A*53
\c:1546360371*5F\$GPGLL,3247.1118,N,07954.7995,W,163251.000,A,D*4A
\c:1546360372*5C\$GPGLL,3247.1109,N,07954.8005,W,163252.000,A,D*46
\c:1546360373*5D\$GPGLL,3247.1099,N,07954.8015,W,163253.000,A,D*4E
\c:1546360373*5D\$GPGLL,3247.111,N,07954.798,W,163252,A,A*5E
\c:1546360374*5A\$GPGLL,3247.1088,N,07954.8025,W,163254.000,A,D*4A
\c:1546360375*5B\$GPGLL,3247.1078,N,07954.8035,W,163255.000,A,D*45
\c:1546360375*5B\$GPGLL,3247.109,N,07954.799,W,163254,A,A*50
\c:1546360376*58\$GPGLL,3247.1068,N,07954.8044,W,163256.000,A,D*41
\c:1546360377*59\$GPGLL,3247.1059,N,07954.8053,W,163257.000,A,D*44
\c:1546360377*59\$GPGLL,3247.108,N,07954.801,W,163256,A,A*5D
\c:1546360378*56\$GPGLL,3247.1049,N,07954.8062,W,163258.000,A,D*48
\c:1546360379*57\$GPGLL,3247.1039,N,07954.8071,W,163259.000,A,D*4C
\c:1546360379*57\$GPGLL,3247.106,N,07954.803,W,163258,A,A*5F
\c:1546360380*51\$GPGLL,3247.1029,N,07954.8081,W,163300.000,A,D*4F
\c:1546360381*50\$GPGLL,3247.1019,N,07954.8090,W,163301.000,A,D*4D
\c:1546360381*50\$GPGLL,3247.104,N,07954.805,W,163300,A,A*57
\c:1546360382*53\$GPGLL,3247.1010,N,07954.8100,W,163302.000,A,D*4F
\c:1546360383*52\$GPGLL,3247.1000,N,07954.8107,W,163303.000,A,D*48
\c:1546360383*52\$GPGLL,3247.102,N,07954.807,W,163302,A,A*51
\c:1546360384*55\$GPGLL,3247.0990,N,07954.8117,W,163304.000,A,D*4F
\c:1546360385*54\$GPGLL,3247.0981,N,07954.8127,W,163305.000,A,D*4D
\c:1546360385*54\$GPGLL,3247.100,N,07954.809,W,163304,A,A*5B
\c:1546360386*57\$GPGLL,3247.0972,N,07954.8137,W,163306.000,A,D*43
\c:1546360387*56\$GPGLL,3247.0963,N,07954.8148,W,163307.000,A,D*4A
\c:1546360387*56\$GPGLL,3247.099,N,07954.810,W,163306,A,A*50
\c:1546360388*59\$GPGLL,3247.0954,N,07954.8157,W,163308.000,A,D*4F
\c:1546360389*58\$GPGLL,3247.0945,N,07954.8166,W,163309.000,A,D*4C
\c:1546360389*58\$GPGLL,3247.097,N,07954.813,W,163308,A,A*53
\c:1546360390*50\$GPGLL,3247.0937,N,07954.8175,W,163310.000,A,D*43
\c:1546360391*51\$GPGLL,3247.0929,N,07954.8184,W,163311.000,A,D*43
\c:1546360391*51\$GPGLL,3247.094,N,07954.815,W,163310,A,A*5F
\c:1546360392*52\$GPGLL,3247.0920,N,07954.8193,W,163312.000,A,D*4F
\c:1546360393*53\$GPGLL,3247.0912,N,07954.8202,W,163313.000,A,D*44
\c:1546360394*54\$GPGLL,3247.093,N,07954.817,W,163312,A,A*58
\c:1546360394*54\$GPGLL,3247.0903,N,07954.8213,W,163314.000,A,D*43
\c:1546360395*55\$GPGLL,3247.0894,N,07954.8224,W,163315.000,A,D*49
