\c:1544920417*54\$GPGLL,3247.223,N,07954.563,W,163439,A,A*51	\c:1544920418*5B\$IIVWT,102,R,14.50,N,07.46,M,,*32
\c:1544920419*5A\$GPGLL,3247.223,N,07954.563,W,163441,A,A*5E	\c:1544920421*51\$IIVWT,105,R,15.58,N,08.02,M,,*33
\c:1544920421*51\$GPGLL,3247.223,N,07954.563,W,163443,A,A*5C	\c:1544920423*53\$IIVWT,104,R,15.49,N,07.97,M,,*31
\c:1544920423*53\$GPGLL,3247.223,N,07954.563,W,163445,A,A*5A	\c:1544920425*55\$IIVWT,094,R,14.90,N,07.67,M,,*33
\c:1544920425*55\$GPGLL,3247.223,N,07954.563,W,163447,A,A*58	\c:1544920427*57\$IIVWT,097,R,14.32,N,07.37,M,,*3D
\c:1544920427*57\$GPGLL,3247.223,N,07954.563,W,163449,A,A*56	\c:1544920429*59\$IIVWT,099,R,16.17,N,08.32,M,,*3C
\c:1544920430*51\$GPGLL,3247.223,N,07954.563,W,163451,A,A*5F	\c:1544920431*50\$IIVWT,094,R,15.93,N,08.20,M,,*3D
\c:1544920432*53\$GPGLL,3247.223,N,07954.563,W,163453,A,A*5D	\c:1544920433*52\$IIVWT,093,R,15.51,N,07.98,M,,*38
\c:1544920434*55\$GPGLL,3247.223,N,07954.563,W,163455,A,A*5B	\c:1544920435*54\$IIVWT,096,R,17.22,N,08.86,M,,*3B
\c:1544920436*57\$GPGLL,3247.223,N,07954.563,W,163457,A,A*59	\c:1544920438*59\$IIVWT,102,R,16.46,N,08.47,M,,*39
\c:1544920438*59\$GPGLL,3247.223,N,07954.563,W,163459,A,A*57	\c:1544920439*58\$IIVWT,100,R,16.50,N,08.49,M,,*32
\c:1544920440*56\$GPGLL,3247.223,N,07954.563,W,163501,A,A*5B	\c:1544920441*57\$IIVWT,101,R,16.46,N,08.47,M,,*3A
\c:1544920442*54\$GPGLL,3247.223,N,07954.563,W,163503,A,A*59	\c:1544920443*55\$IIVWT,103,R,15.80,N,08.13,M,,*30
\c:1544920443*55\$GPGLL,3247.2157,N,07954.5640,W,163506.000,A,D*42	\c:1544920445*53\$IIVWT,097,R,14.57,N,07.50,M,,*3F
\c:1544920444*52\$GPGLL,3247.2157,N,07954.5640,W,163507.000,A,D*43	\c:1544920447*51\$IIVWT,099,R,14.65,N,07.54,M,,*34
\c:1544920444*52\$GPGLL,3247.223,N,07954.563,W,163505,A,A*5F	\c:1544920449*5F\$IIVWT,096,R,14.44,N,07.43,M,,*3E
\c:1544920445*53\$GPGLL,3247.2157,N,07954.5640,W,163508.000,A,D*4C	\c:1544920451*56\$IIVWT,097,R,15.88,N,08.17,M,,*30
\c:1544920446*50\$GPGLL,3247.2157,N,07954.5640,W,163509.000,A,D*4D	\c:1544920453*54\$IIVWT,100,R,16.30,N,08.39,M,,*33
\c:1544920446*50\$GPGLL,3247.223,N,07954.563,W,163507,A,A*5D	\c:1544920455*52\$IIVWT,099,R,16.13,N,08.30,M,,*3A
\c:1544920447*51\$GPGLL,3247.2157,N,07954.5640,W,163510.000,A,D*45	\c:1544920457*50\$IIVWT,100,R,16.46,N,08.47,M,,*3B
\c:1544920448*5E\$GPGLL,3247.2157,N,07954.5640,W,163511.000,A,D*44	\c:1544920459*5E\$IIVWT,101,R,16.89,N,08.69,M,,*35
\c:1544920448*5E\$GPGLL,3247.223,N,07954.563,W,163509,A,A*53	\c:1544920461*55\$IIVWT,097,R,16.46,N,08.47,M,,*34
\c:1544920449*5F\$GPGLL,3247.2157,N,07954.5640,W,163512.000,A,D*47	\c:1544920464*50\$IIVWT,094,R,17.59,N,09.05,M,,*3F
\c:1544920450*57\$GPGLL,3247.2157,N,07954.5640,W,163513.000,A,D*46	\c:1544920466*52\$IIVWT,098,R,18.33,N,09.43,M,,*32
\c:1544920450*57\$GPGLL,3247.223,N,07954.563,W,163511,A,A*5A	\c:1544920753*57\$IIVWT,115,R,12.77,N,06.57,M,,*36
\c:1544920451*56\$GPGLL,3247.2157,N,07954.5640,W,163514.000,A,D*41	\c:1544920755*51\$IIVWT,118,R,12.09,N,06.22,M,,*30
\c:1544920452*55\$GPGLL,3247.2157,N,07954.5640,W,163515.000,A,D*40	\c:1544920757*53\$IIVWT,117,R,12.18,N,06.27,M,,*3A
\c:1544920452*55\$GPGLL,3247.223,N,07954.563,W,163513,A,A*58	\c:1544920759*5D\$IIVWT,116,R,12.34,N,06.35,M,,*36
\c:1544920453*54\$GPGLL,3247.2157,N,07954.5640,W,163516.000,A,D*43	\c:1544920761*56\$IIVWT,111,R,12.22,N,06.29,M,,*3B
\c:1544920454*53\$GPGLL,3247.2158,N,07954.5640,W,163517.000,A,D*4D	\c:1544920763*54\$IIVWT,107,R,12.84,N,06.61,M,,*3C
\c:1544920454*53\$GPGLL,3247.223,N,07954.563,W,163515,A,A*5E	\c:1544920765*52\$IIVWT,111,R,13.08,N,06.73,M,,*3D
\c:1544920455*52\$GPGLL,3247.2158,N,07954.5640,W,163518.000,A,D*42	\c:1544920767*50\$IIVWT,113,R,12.09,N,06.22,M,,*3B
\c:1544920456*51\$GPGLL,3247.2158,N,07954.5640,W,163519.000,A,D*43	\c:1544920769*5E\$IIVWT,109,R,12.22,N,06.29,M,,*32
\c:1544920456*51\$GPGLL,3247.223,N,07954.563,W,163517,A,A*5C	\c:1544920772*54\$IIVWT,111,R,13.27,N,06.83,M,,*3F
\c:1544920457*50\$GPGLL,3247.2158,N,07954.5640,W,163520.000,A,D*49	\c:1544920774*52\$IIVWT,112,R,13.27,N,06.83,M,,*3C
\c:1544920458*5F\$GPGLL,3247.2158,N,07954.5640,W,163521.000,A,D*48	\c:1544920776*50\$IIVWT,111,R,13.31,N,06.85,M,,*3E
\c:1544920458*5F\$GPGLL,3247.223,N,07954.563,W,163519,A,A*52	\c:1544920778*5E\$IIVWT,112,R,13.91,N,07.16,M,,*3C
\c:1544920459*5E\$GPGLL,3247.2158,N,07954.5640,W,163522.000,A,D*4B	\c:1544920780*59\$IIVWT,118,R,14.26,N,07.34,M,,*3D
\c:1544920460*54\$GPGLL,3247.2158,N,07954.5640,W,163523.000,A,D*4A	\c:1544920782*5B\$IIVWT,112,R,13.45,N,06.92,M,,*38
\c:1544920460*54\$GPGLL,3247.223,N,07954.563,W,163522,A,A*5A	\c:1544920784*5D\$IIVWT,113,R,13.12,N,06.75,M,,*32
\c:1544920461*55\$GPGLL,3247.2158,N,07954.5640,W,163524.000,A,D*4D	\c:1544920786*5F\$IIVWT,112,R,12.69,N,06.53,M,,*3A
\c:1544920462*56\$GPGLL,3247.2157,N,07954.5640,W,163525.000,A,D*43	\c:1544920788*51\$IIVWT,111,R,12.57,N,06.47,M,,*31
\c:1544920462*56\$GPGLL,3247.223,N,07954.563,W,163524,A,A*5C	\c:1544920790*58\$IIVWT,121,R,12.30,N,06.33,M,,*30
\c:1544920463*57\$GPGLL,3247.2157,N,07954.5640,W,163526.000,A,D*40	\c:1544920792*5A\$IIVWT,111,R,11.79,N,06.07,M,,*3A
\c:1544920464*50\$GPGLL,3247.2157,N,07954.5640,W,163527.000,A,D*41	\c:1544920794*5C\$IIVWT,109,R,11.70,N,06.02,M,,*3F
\c:1544920464*50\$GPGLL,3247.223,N,07954.563,W,163526,A,A*5E	\c:1544920796*5E\$IIVWT,108,R,11.89,N,06.12,M,,*39
\c:1544920465*51\$GPGLL,3247.2157,N,07954.5640,W,163528.000,A,D*4E	\c:1544920798*50\$IIVWT,115,R,11.37,N,05.85,M,,*3D
\c:1544920466*52\$GPGLL,3247.2157,N,07954.5640,W,163529.000,A,D*4F	\c:1544920800*5E\$IIVWT,115,R,11.37,N,05.85,M,,*3D
\c:1544920466*52\$GPGLL,3247.223,N,07954.563,W,163528,A,A*50	\c:1544920802*5C\$IIVWT,119,R,11.29,N,05.81,M,,*3A
\c:1544920467*53\$GPGLL,3247.2157,N,07954.5640,W,163530.000,A,D*47	\c:1544920804*5A\$IIVWT,117,R,11.35,N,05.84,M,,*3C
\c:1544920561*54\$GPGLL,3247.2159,N,07954.5640,W,163704.000,A,D*4C	\c:1544920806*58\$IIVWT,121,R,11.64,N,05.99,M,,*31
\c:1544920562*57\$GPGLL,3247.2159,N,07954.5640,W,163705.000,A,D*4D	\c:1544920809*57\$IIVWT,121,R,11.37,N,05.85,M,,*3A
\c:1544920563*56\$GPGLL,3247.2159,N,07954.5640,W,163706.000,A,D*4E	\c:1544920810*5F\$IIVWT,117,R,11.52,N,05.93,M,,*3B
\c:1544920564*51\$GPGLL,3247.2159,N,07954.5640,W,163707.000,A,D*4F	\c:1544920812*5D\$IIVWT,108,R,11.46,N,05.90,M,,*33
\c:1544920565*50\$GPGLL,3247.2159,N,07954.5640,W,163708.000,A,D*40	\c:1544920815*5A\$IIVWT,111,R,13.02,N,06.70,M,,*34
\c:1544920566*53\$GPGLL,3247.2159,N,07954.5640,W,163709.000,A,D*41	\c:1544920817*58\$IIVWT,110,R,13.23,N,06.81,M,,*38
\c:1544920567*52\$GPGLL,3247.2159,N,07954.5640,W,163710.000,A,D*49	\c:1544920819*56\$IIVWT,107,R,12.94,N,06.66,M,,*3A
\c:1544920568*5D\$GPGLL,3247.2159,N,07954.5640,W,163711.000,A,D*48	\c:1544920821*5D\$IIVWT,116,R,13.45,N,06.92,M,,*3C
\c:1544920569*5C\$GPGLL,3247.2159,N,07954.5640,W,163712.000,A,D*4B	\c:1544920823*5F\$IIVWT,122,R,11.44,N,05.89,M,,*31
\c:1544920570*54\$GPGLL,3247.2159,N,07954.5640,W,163713.000,A,D*4A	\c:1544920825*59\$IIVWT,124,R,10.94,N,05.63,M,,*3F
\c:1544920571*55\$GPGLL,3247.2159,N,07954.5640,W,163714.000,A,D*4D	\c:1544920827*5B\$IIVWT,124,R,10.01,N,05.15,M,,*32
\c:1544920572*56\$GPGLL,3247.2159,N,07954.5640,W,163715.000,A,D*4C	\c:1544920829*55\$IIVWT,126,R,11.79,N,06.07,M,,*3E
\c:1544920573*57\$GPGLL,3247.2159,N,07954.5640,W,163716.000,A,D*4F	\c:1544920831*5C\$IIVWT,124,R,12.71,N,06.54,M,,*31
\c:1544920574*50\$GPGLL,3247.2159,N,07954.5640,W,163717.000,A,D*4E	\c:1544920833*5E\$IIVWT,123,R,13.12,N,06.75,M,,*31
\c:1544920575*51\$GPGLL,3247.2159,N,07954.5640,W,163718.000,A,D*41	\c:1544920835*58\$IIVWT,120,R,12.77,N,06.57,M,,*30
\c:1544920576*52\$GPGLL,3247.2159,N,07954.5640,W,163719.000,A,D*40	\c:1544920837*5A\$IIVWT,126,R,13.35,N,06.87,M,,*3C
\c:1544920577*53\$GPGLL,3247.2159,N,07954.5640,W,163720.000,A,D*4A	\c:1544920839*54\$IIVWT,126,R,13.17,N,06.78,M,,*3C
\c:1544920578*5C\$GPGLL,3247.2159,N,07954.5640,W,163721.000,A,D*4B	\c:1544920841*5B\$IIVWT,126,R,12.18,N,06.27,M,,*38
\c:1544920579*5D\$GPGLL,3247.2159,N,07954.5640,W,163722.000,A,D*48	\c:1544920843*59\$IIVWT,126,R,12.32,N,06.34,M,,*32
\c:1544920580*5B\$GPGLL,3247.2159,N,07954.5640,W,163723.000,A,D*49	\c:1544920845*5F\$IIVWT,125,R,11.89,N,06.12,M,,*36
\c:1544920581*5A\$GPGLL,3247.2159,N,07954.5640,W,163724.000,A,D*4E	\c:1544920847*5D\$IIVWT,128,R,11.85,N,06.10,M,,*35
\c:1544920582*59\$GPGLL,3247.2159,N,07954.5640,W,163725.000,A,D*4F	\c:1544920849*53\$IIVWT,125,R,11.11,N,05.72,M,,*32
\c:1544920583*58\$GPGLL,3247.2159,N,07954.5640,W,163726.000,A,D*4C	\c:1544920851*5A\$IIVWT,126,R,10.92,N,05.62,M,,*3A
\c:1544920584*5F\$GPGLL,3247.2159,N,07954.5640,W,163727.000,A,D*4D	\c:1544920853*58\$IIVWT,125,R,11.23,N,05.78,M,,*39
\c:1544920585*5E\$GPGLL,3247.2159,N,07954.5640,W,163728.000,A,D*42	\c:1544920855*5E\$IIVWT,120,R,10.61,N,05.46,M,,*36
\c:1544920586*5D\$GPGLL,3247.2159,N,07954.5640,W,163729.000,A,D*43	\c:1544920859*52\$IIVWT,115,R,10.82,N,05.57,M,,*3D
\c:1544920588*53\$GPGLL,3247.2159,N,07954.5640,W,163730.000,A,D*4B	\c:1544920860*58\$IIVWT,117,R,11.76,N,06.05,M,,*31
\c:1544920588*53\$GPGLL,3247.2159,N,07954.5640,W,163731.000,A,D*4A	\c:1544920862*5A\$IIVWT,114,R,11.81,N,06.08,M,,*37
\c:1544920589*52\$GPGLL,3247.2159,N,07954.5640,W,163732.000,A,D*49	\c:1544920864*5C\$IIVWT,119,R,11.58,N,05.96,M,,*3A
\c:1544920590*5A\$GPGLL,3247.2159,N,07954.5640,W,163733.000,A,D*48	\c:1544920866*5E\$IIVWT,114,R,11.09,N,05.71,M,,*3A
\c:1544920591*5B\$GPGLL,3247.2159,N,07954.5640,W,163734.000,A,D*4F	\c:1544920868*50\$IIVWT,120,R,11.56,N,05.95,M,,*3D
\c:1544920592*58\$GPGLL,3247.2159,N,07954.5640,W,163735.000,A,D*4E	\c:1544920870*59\$IIVWT,119,R,11.00,N,05.66,M,,*38
\c:1544920593*59\$GPGLL,3247.2159,N,07954.5640,W,163736.000,A,D*4D	\c:1544920872*5B\$IIVWT,119,R,11.02,N,05.67,M,,*3B
\c:1544920594*5E\$GPGLL,3247.2159,N,07954.5640,W,163737.000,A,D*4C	\c:1544920874*5D\$IIVWT,119,R,10.45,N,05.38,M,,*33
\c:1544920595*5F\$GPGLL,3247.2159,N,07954.5640,W,163738.000,A,D*43	\c:1544920876*5F\$IIVWT,119,R,10.30,N,05.30,M,,*39
\c:1544920596*5C\$GPGLL,3247.2159,N,07954.5640,W,163739.000,A,D*42	\c:1544920878*51\$IIVWT,120,R,10.76,N,05.54,M,,*33
\c:1544920598*52\$GPGLL,3247.2159,N,07954.5640,W,163740.000,A,D*4C	\c:1544920880*56\$IIVWT,115,R,10.61,N,05.46,M,,*30
\c:1544920598*52\$GPGLL,3247.2159,N,07954.5640,W,163741.000,A,D*4D	\c:1544920882*54\$IIVWT,122,R,10.78,N,05.55,M,,*3E
\c:1544920599*53\$GPGLL,3247.2159,N,07954.5640,W,163742.000,A,D*4E	\c:1544920884*52\$IIVWT,120,R,11.09,N,05.71,M,,*3D
\c:1544920600*50\$GPGLL,3247.2159,N,07954.5640,W,163743.000,A,D*4F	\c:1544920886*50\$IIVWT,114,R,12.59,N,06.48,M,,*35
\c:1544920601*51\$GPGLL,3247.2159,N,07954.5640,W,163744.000,A,D*48	\c:1544920888*5E\$IIVWT,109,R,13.68,N,07.04,M,,*33
\c:1544920602*52\$GPGLL,3247.2159,N,07954.5640,W,163745.000,A,D*49	\c:1544920890*57\$IIVWT,115,R,13.52,N,06.96,M,,*3D
\c:1544920603*53\$GPGLL,3247.2159,N,07954.5640,W,163746.000,A,D*4A	\c:1544920892*55\$IIVWT,120,R,13.80,N,07.10,M,,*3B
\c:1544920604*54\$GPGLL,3247.2159,N,07954.5640,W,163747.000,A,D*4B	\c:1544920894*53\$IIVWT,125,R,14.24,N,07.33,M,,*36
\c:1544920605*55\$GPGLL,3247.2159,N,07954.5640,W,163748.000,A,D*44	\c:1544920896*51\$IIVWT,115,R,14.01,N,07.21,M,,*31
\c:1544920606*56\$GPGLL,3247.2159,N,07954.5640,W,163749.000,A,D*45	\c:1544920898*5F\$IIVWT,119,R,13.27,N,06.83,M,,*37
\c:1544920608*58\$GPGLL,3247.2159,N,07954.5639,W,163750.000,A,D*43	\c:1544920901*5E\$IIVWT,120,R,14.05,N,07.23,M,,*31
\c:1544920608*58\$GPGLL,3247.2159,N,07954.5639,W,163751.000,A,D*42	\c:1544920903*5C\$IIVWT,121,R,13.29,N,06.84,M,,*35
\c:1544920609*59\$GPGLL,3247.2159,N,07954.5639,W,163752.000,A,D*41	\c:1544920905*5A\$IIVWT,121,R,13.12,N,06.75,M,,*33
\c:1544920610*51\$GPGLL,3247.2159,N,07954.5639,W,163753.000,A,D*40	\c:1544920907*58\$IIVWT,124,R,12.61,N,06.49,M,,*3C
\c:1544920611*50\$GPGLL,3247.2159,N,07954.5639,W,163754.000,A,D*47	\c:1544920909*56\$IIVWT,123,R,13.50,N,06.95,M,,*39
\c:1544920612*53\$GPGLL,3247.2159,N,07954.5639,W,163755.000,A,D*46	\c:1544920911*5F\$IIVWT,127,R,13.21,N,06.80,M,,*3F
\c:1544920613*52\$GPGLL,3247.2159,N,07954.5639,W,163756.000,A,D*45	\c:1544920913*5D\$IIVWT,126,R,12.88,N,06.63,M,,*31
\c:1544920614*55\$GPGLL,3247.2159,N,07954.5639,W,163757.000,A,D*44	\c:1544920915*5B\$IIVWT,121,R,12.88,N,06.63,M,,*36
\c:1544920615*54\$GPGLL,3247.2159,N,07954.5639,W,163758.000,A,D*4B	\c:1544920917*59\$IIVWT,118,R,12.79,N,06.58,M,,*3A
\c:1544920616*57\$GPGLL,3247.2159,N,07954.5639,W,163759.000,A,D*4A	\c:1544920919*57\$IIVWT,122,R,12.61,N,06.49,M,,*3A
\c:1544920617*56\$GPGLL,3247.2160,N,07954.5639,W,163800.000,A,D*43	\c:1544920921*5C\$IIVWT,122,R,12.51,N,06.44,M,,*34
\c:1544920618*59\$GPGLL,3247.2160,N,07954.5639,W,163801.000,A,D*42	\c:1544920923*5E\$IIVWT,121,R,12.07,N,06.21,M,,*37
\c:1544920619*58\$GPGLL,3247.2160,N,07954.5639,W,163802.000,A,D*41	\c:1544920925*58\$IIVWT,121,R,12.16,N,06.26,M,,*30
\c:1544920620*52\$GPGLL,3247.2160,N,07954.5639,W,163803.000,A,D*40	\c:1544920927*5A\$IIVWT,117,R,11.85,N,06.10,M,,*39
\c:1544920621*53\$GPGLL,3247.2160,N,07954.5639,W,163804.000,A,D*47	\c:1544920929*54\$IIVWT,114,R,11.11,N,05.72,M,,*30
\c:1544920622*50\$GPGLL,3247.2160,N,07954.5639,W,163805.000,A,D*46	\c:1544920931*5D\$IIVWT,123,R,11.33,N,05.83,M,,*3A
\c:1544920623*51\$GPGLL,3247.2160,N,07954.5639,W,163806.000,A,D*45	\c:1544920933*5F\$IIVWT,126,R,10.78,N,05.55,M,,*3A
\c:1544920624*56\$GPGLL,3247.2160,N,07954.5639,W,163807.000,A,D*44	\c:1544920935*59\$IIVWT,123,R,09.79,N,05.04,M,,*32
\c:1544920625*57\$GPGLL,3247.2160,N,07954.5639,W,163808.000,A,D*4B	\c:1544920937*5B\$IIVWT,113,R,09.17,N,04.72,M,,*39
\c:1544920657*52\$GPGLL,3247.2160,N,07954.5639,W,163840.000,A,D*47	\c:1544920939*55\$IIVWT,109,R,08.98,N,04.62,M,,*35
\c:1544920658*5D\$GPGLL,3247.2160,N,07954.5639,W,163841.000,A,D*46	\c:1544920941*5A\$IIVWT,117,R,10.20,N,05.25,M,,*32
\c:1544920659*5C\$GPGLL,3247.2160,N,07954.5638,W,163842.000,A,D*44	\c:1544920944*5F\$IIVWT,108,R,10.18,N,05.24,M,,*36
\c:1544920660*56\$GPGLL,3247.2160,N,07954.5638,W,163843.000,A,D*45	\c:1544920946*5D\$IIVWT,111,R,10.84,N,05.58,M,,*30
\c:1544920661*57\$GPGLL,3247.2160,N,07954.5638,W,163844.000,A,D*42	\c:1544920948*53\$IIVWT,110,R,09.87,N,05.08,M,,*3F
\c:1544920662*54\$GPGLL,3247.2160,N,07954.5638,W,163845.000,A,D*43	\c:1544920950*5A\$IIVWT,114,R,10.20,N,05.25,M,,*31
\c:1544920663*55\$GPGLL,3247.2160,N,07954.5638,W,163846.000,A,D*40	\c:1544920952*58\$IIVWT,114,R,09.69,N,04.99,M,,*32
\c:1544920664*52\$GPGLL,3247.2160,N,07954.5638,W,163847.000,A,D*41	\c:1544920954*5E\$IIVWT,110,R,10.08,N,05.19,M,,*30
\c:1544920665*53\$GPGLL,3247.2160,N,07954.5638,W,163848.000,A,D*4E	\c:1544920956*5C\$IIVWT,114,R,09.77,N,05.03,M,,*3F
\c:1544920666*50\$GPGLL,3247.2160,N,07954.5638,W,163849.000,A,D*4F	\c:1544920958*52\$IIVWT,112,R,09.69,N,04.99,M,,*34
\c:1544920667*51\$GPGLL,3247.2160,N,07954.5638,W,163850.000,A,D*47	\c:1544920960*59\$IIVWT,111,R,10.34,N,05.32,M,,*37
\c:1544920668*5E\$GPGLL,3247.2161,N,07954.5638,W,163851.000,A,D*47	\c:1544920962*5B\$IIVWT,110,R,10.20,N,05.25,M,,*35
\c:1544920669*5F\$GPGLL,3247.2161,N,07954.5638,W,163852.000,A,D*44	\c:1544920964*5D\$IIVWT,112,R,09.60,N,04.94,M,,*30
\c:1544920670*57\$GPGLL,3247.2161,N,07954.5638,W,163853.000,A,D*45	\c:1544920966*5F\$IIVWT,107,R,09.56,N,04.92,M,,*37
\c:1544920671*56\$GPGLL,3247.2161,N,07954.5638,W,163854.000,A,D*42	\c:1544920968*51\$IIVWT,106,R,09.17,N,04.72,M,,*3D
\c:1544920672*55\$GPGLL,3247.2161,N,07954.5638,W,163855.000,A,D*43	\c:1544920970*58\$IIVWT,102,R,08.65,N,04.45,M,,*39
\c:1544920673*54\$GPGLL,3247.2161,N,07954.5638,W,163856.000,A,D*40	\c:1544920972*5A\$IIVWT,108,R,09.11,N,04.69,M,,*3F
\c:1544920674*53\$GPGLL,3247.2161,N,07954.5638,W,163857.000,A,D*41	\c:1544920974*5C\$IIVWT,112,R,09.21,N,04.74,M,,*3B
\c:1544920675*52\$GPGLL,3247.2161,N,07954.5638,W,163858.000,A,D*4E	\c:1544920976*5E\$IIVWT,111,R,09.03,N,04.65,M,,*38
\c:1544920676*51\$GPGLL,3247.2162,N,07954.5638,W,163859.000,A,D*4C	\c:1544920978*50\$IIVWT,111,R,09.15,N,04.71,M,,*3A
\c:1544920677*50\$GPGLL,3247.2162,N,07954.5639,W,163900.000,A,D*40	\c:1544920980*57\$IIVWT,108,R,09.23,N,04.75,M,,*33
\c:1544920678*5F\$GPGLL,3247.2166,N,07954.5638,W,163901.000,A,D*44	\c:1544920982*55\$IIVWT,107,R,09.36,N,04.82,M,,*30
\c:1544920679*5E\$GPGLL,3247.2167,N,07954.5638,W,163902.000,A,D*46	\c:1544920984*53\$IIVWT,107,R,09.36,N,04.82,M,,*30
\c:1544920680*58\$GPGLL,3247.2167,N,07954.5638,W,163903.000,A,D*47	\c:1544920987*50\$IIVWT,113,R,10.67,N,05.49,M,,*3F
\c:1544920681*59\$GPGLL,3247.2167,N,07954.5638,W,163904.000,A,D*40	\c:1544920989*5E\$IIVWT,112,R,11.09,N,05.71,M,,*3C
\c:1544920682*5A\$GPGLL,3247.2167,N,07954.5638,W,163905.000,A,D*41	\c:1544920991*57\$IIVWT,119,R,11.19,N,05.76,M,,*31
\c:1544920683*5B\$GPGLL,3247.2167,N,07954.5638,W,163906.000,A,D*42	\c:1544920993*55\$IIVWT,112,R,10.92,N,05.62,M,,*3D
\c:1544920684*5C\$GPGLL,3247.2167,N,07954.5638,W,163907.000,A,D*43	\c:1544920995*53\$IIVWT,117,R,11.11,N,05.72,M,,*33
\c:1544920685*5D\$GPGLL,3247.2167,N,07954.5638,W,163908.000,A,D*4C	\c:1544920997*51\$IIVWT,112,R,10.67,N,05.49,M,,*3E
\c:1544920686*5E\$GPGLL,3247.2167,N,07954.5638,W,163909.000,A,D*4D	\c:1544920999*5F\$IIVWT,109,R,10.53,N,05.42,M,,*38
\c:1544920687*5F\$GPGLL,3247.2167,N,07954.5638,W,163910.000,A,D*45	\c:1544921001*56\$IIVWT,114,R,10.86,N,05.59,M,,*36
\c:1544920688*50\$GPGLL,3247.2167,N,07954.5638,W,163911.000,A,D*44	\c:1544921003*54\$IIVWT,115,R,10.38,N,05.34,M,,*39
\c:1544920689*51\$GPGLL,3247.2167,N,07954.5638,W,163912.000,A,D*47	\c:1544921005*52\$IIVWT,111,R,10.22,N,05.26,M,,*35
\c:1544920690*59\$GPGLL,3247.2167,N,07954.5638,W,163913.000,A,D*46	\c:1544921007*50\$IIVWT,118,R,10.45,N,05.38,M,,*32
\c:1544920691*58\$GPGLL,3247.2167,N,07954.5638,W,163914.000,A,D*41	\c:1544921009*5E\$IIVWT,117,R,10.86,N,05.59,M,,*35
\c:1544920692*5B\$GPGLL,3247.2167,N,07954.5638,W,163915.000,A,D*40	\c:1544921011*57\$IIVWT,119,R,10.59,N,05.45,M,,*34
\c:1544920693*5A\$GPGLL,3247.2167,N,07954.5638,W,163916.000,A,D*43	\c:1544921013*55\$IIVWT,124,R,10.82,N,05.57,M,,*3F
\c:1544920694*5D\$GPGLL,3247.2167,N,07954.5638,W,163917.000,A,D*42	\c:1544921015*53\$IIVWT,116,R,11.11,N,05.72,M,,*32
\c:1544920695*5C\$GPGLL,3247.2167,N,07954.5638,W,163918.000,A,D*4D	\c:1544921017*51\$IIVWT,123,R,10.34,N,05.32,M,,*36
\c:1544920696*5F\$GPGLL,3247.2167,N,07954.5638,W,163919.000,A,D*4C	\c:1544921019*5F\$IIVWT,126,R,08.66,N,04.46,M,,*3F
\c:1544920697*5E\$GPGLL,3247.2167,N,07954.5638,W,163920.000,A,D*46	\c:1544921021*54\$IIVWT,112,R,09.21,N,04.74,M,,*3B
\c:1544920698*51\$GPGLL,3247.2167,N,07954.5638,W,163921.000,A,D*47	\c:1544921023*56\$IIVWT,111,R,10.67,N,05.49,M,,*3D
\c:1544920699*50\$GPGLL,3247.2167,N,07954.5638,W,163922.000,A,D*44	\c:1544921025*50\$IIVWT,109,R,11.23,N,05.78,M,,*37
\c:1544920700*51\$GPGLL,3247.2167,N,07954.5638,W,163923.000,A,D*45	\c:1544921027*52\$IIVWT,108,R,10.90,N,05.61,M,,*37
\c:1544920701*50\$GPGLL,3247.2167,N,07954.5638,W,163924.000,A,D*42	\c:1544921030*54\$IIVWT,114,R,11.29,N,05.81,M,,*37
\c:1544920702*53\$GPGLL,3247.2167,N,07954.5638,W,163925.000,A,D*43	\c:1544921032*56\$IIVWT,120,R,10.39,N,05.35,M,,*3F
\c:1544920703*52\$GPGLL,3247.2167,N,07954.5638,W,163926.000,A,D*40	\c:1544921034*50\$IIVWT,118,R,11.39,N,05.86,M,,*3D
\c:1544920704*55\$GPGLL,3247.2167,N,07954.5638,W,163927.000,A,D*41	\c:1544921036*52\$IIVWT,117,R,11.00,N,05.66,M,,*36
\c:1544920705*54\$GPGLL,3247.2167,N,07954.5638,W,163928.000,A,D*4E	\c:1544921038*5C\$IIVWT,115,R,11.11,N,05.72,M,,*31
\c:1544920706*57\$GPGLL,3247.2167,N,07954.5638,W,163929.000,A,D*4F	\c:1544921040*53\$IIVWT,117,R,11.42,N,05.88,M,,*30
\c:1544920707*56\$GPGLL,3247.2167,N,07954.5638,W,163930.000,A,D*47	\c:1544921042*51\$IIVWT,105,R,11.15,N,05.74,M,,*32
\c:1544920708*59\$GPGLL,3247.2167,N,07954.5638,W,163931.000,A,D*46	\c:1544921044*57\$IIVWT,112,R,10.49,N,05.40,M,,*3B
\c:1544920709*58\$GPGLL,3247.2167,N,07954.5638,W,163932.000,A,D*45	\c:1544921046*55\$IIVWT,111,R,10.49,N,05.40,M,,*38
\c:1544920710*50\$GPGLL,3247.2167,N,07954.5638,W,163933.000,A,D*44	\c:1544921048*5B\$IIVWT,113,R,10.24,N,05.27,M,,*30
\c:1544920711*51\$GPGLL,3247.2167,N,07954.5638,W,163934.000,A,D*43	\c:1544921050*52\$IIVWT,116,R,10.14,N,05.22,M,,*33
\c:1544920712*52\$GPGLL,3247.2167,N,07954.5638,W,163935.000,A,D*42	\c:1544921052*50\$IIVWT,117,R,10.20,N,05.25,M,,*32
\c:1544920713*53\$GPGLL,3247.2167,N,07954.5638,W,163936.000,A,D*41	\c:1544921054*56\$IIVWT,123,R,09.23,N,04.75,M,,*3A
\c:1544920714*54\$GPGLL,3247.2167,N,07954.5638,W,163937.000,A,D*40	\c:1544921056*54\$IIVWT,130,R,09.73,N,05.01,M,,*3F
\c:1544920715*55\$GPGLL,3247.2167,N,07954.5638,W,163938.000,A,D*4F	\c:1544921058*5A\$IIVWT,118,R,09.56,N,04.92,M,,*39
\c:1544920716*56\$GPGLL,3247.2167,N,07954.5638,W,163939.000,A,D*4E	\c:1544921060*51\$IIVWT,135,R,09.46,N,04.87,M,,*33
\c:1544920717*57\$GPGLL,3247.2167,N,07954.5638,W,163940.000,A,D*40	\c:1544921062*53\$IIVWT,123,R,10.26,N,05.28,M,,*3E
\c:1544920718*58\$GPGLL,3247.2167,N,07954.5638,W,163941.000,A,D*41	\c:1544921064*55\$IIVWT,120,R,10.41,N,05.36,M,,*33
\c:1544920719*59\$GPGLL,3247.2167,N,07954.5638,W,163942.000,A,D*42	\c:1544921066*57\$IIVWT,121,R,10.20,N,05.25,M,,*37
\c:1544920720*53\$GPGLL,3247.2167,N,07954.5638,W,163943.000,A,D*43	\c:1544921068*59\$IIVWT,115,R,09.85,N,05.07,M,,*37
\c:1544920721*52\$GPGLL,3247.2167,N,07954.5638,W,163944.000,A,D*44	\c:1544921071*51\$IIVWT,115,R,09.33,N,04.80,M,,*34
\c:1544920722*51\$GPGLL,3247.2167,N,07954.5638,W,163945.000,A,D*45	\c:1544921073*53\$IIVWT,104,R,09.66,N,04.97,M,,*32
\c:1544920723*50\$GPGLL,3247.2167,N,07954.5638,W,163946.000,A,D*46	\c:1544921075*55\$IIVWT,099,R,09.79,N,05.04,M,,*32
\c:1544920724*57\$GPGLL,3247.2167,N,07954.5638,W,163947.000,A,D*47	\c:1544921077*57\$IIVWT,109,R,09.64,N,04.96,M,,*3C
\c:1544920725*56\$GPGLL,3247.2167,N,07954.5638,W,163948.000,A,D*48	\c:1544921079*59\$IIVWT,102,R,10.86,N,05.59,M,,*31
\c:1544920726*55\$GPGLL,3247.2167,N,07954.5638,W,163949.000,A,D*49	\c:1544921081*5E\$IIVWT,102,R,14.46,N,07.44,M,,*37
\c:1544920727*54\$GPGLL,3247.2167,N,07954.5638,W,163950.000,A,D*41	\c:1544921083*5C\$IIVWT,099,R,13.41,N,06.90,M,,*3C
\c:1544920728*5B\$GPGLL,3247.2167,N,07954.5638,W,163951.000,A,D*40	\c:1544921085*5A\$IIVWT,103,R,13.37,N,06.88,M,,*36
\c:1544920752*56\$GPGLL,3247.222,N,07954.564,W,164025,A,A*59	\c:1544921087*58\$IIVWT,100,R,13.91,N,07.16,M,,*3F
\c:1544920754*50\$GPGLL,3247.222,N,07954.564,W,164027,A,A*5B	\c:1544921089*56\$IIVWT,101,R,13.27,N,06.83,M,,*3E
\c:1544920756*52\$GPGLL,3247.222,N,07954.564,W,164029,A,A*55	\c:1544921091*5F\$IIVWT,096,R,13.39,N,06.89,M,,*34
\c:1544920758*5C\$GPGLL,3247.222,N,07954.565,W,164031,A,A*5D	\c:1544921093*5D\$IIVWT,095,R,12.98,N,06.68,M,,*32
\c:1544920760*57\$GPGLL,3247.222,N,07954.565,W,164033,A,A*5F	\c:1544921095*5B\$IIVWT,096,R,12.09,N,06.22,M,,*37
\c:1544920762*55\$GPGLL,3247.222,N,07954.565,W,164035,A,A*59	\c:1544921097*59\$IIVWT,099,R,12.01,N,06.18,M,,*39
\c:1544920764*53\$GPGLL,3247.222,N,07954.565,W,164037,A,A*5B	\c:1544921099*57\$IIVWT,094,R,12.32,N,06.34,M,,*3A
\c:1544920766*51\$GPGLL,3247.222,N,07954.565,W,164039,A,A*55	\c:1544921101*57\$IIVWT,098,R,11.48,N,05.91,M,,*34
\c:1544920768*5F\$GPGLL,3247.222,N,07954.565,W,164041,A,A*5A	\c:1544921103*55\$IIVWT,101,R,10.96,N,05.64,M,,*3D
\c:1544920770*56\$GPGLL,3247.222,N,07954.565,W,164043,A,A*58	\c:1544921105*53\$IIVWT,100,R,11.56,N,05.95,M,,*3F
\c:1544920772*54\$GPGLL,3247.222,N,07954.565,W,164045,A,A*5E	\c:1544921107*51\$IIVWT,101,R,11.25,N,05.79,M,,*38
\c:1544920774*52\$GPGLL,3247.222,N,07954.565,W,164048,A,A*53	\c:1544921109*5F\$IIVWT,094,R,11.97,N,06.16,M,,*36
\c:1544920776*50\$GPGLL,3247.222,N,07954.565,W,164050,A,A*5A	\c:1544921111*56\$IIVWT,089,R,11.11,N,05.72,M,,*35
\c:1544920778*5E\$GPGLL,3247.222,N,07954.565,W,164052,A,A*58	\c:1544921114*53\$IIVWT,094,R,11.66,N,06.00,M,,*3F
\c:1544920779*5F\$GPGLL,3247.2168,N,07954.5639,W,164054.000,A,D*45	\c:1544921116*51\$IIVWT,095,R,12.22,N,06.29,M,,*36
\c:1544920780*59\$GPGLL,3247.2168,N,07954.5639,W,164055.000,A,D*44	\c:1544921118*5F\$IIVWT,096,R,12.88,N,06.63,M,,*3B
\c:1544920780*59\$GPGLL,3247.222,N,07954.565,W,164054,A,A*5E	\c:1544921120*54\$IIVWT,095,R,13.41,N,06.90,M,,*30
\c:1544920781*58\$GPGLL,3247.2168,N,07954.5639,W,164056.000,A,D*47	\c:1544921122*56\$IIVWT,095,R,13.00,N,06.69,M,,*33
\c:1544920782*5B\$GPGLL,3247.2168,N,07954.5639,W,164057.000,A,D*46	\c:1544921124*50\$IIVWT,095,R,13.70,N,07.05,M,,*3F
\c:1544920783*5A\$GPGLL,3247.222,N,07954.565,W,164056,A,A*5C	\c:1544921126*52\$IIVWT,099,R,13.10,N,06.74,M,,*32
\c:1544920783*5A\$GPGLL,3247.2168,N,07954.5639,W,164058.000,A,D*49	\c:1544921128*5C\$IIVWT,101,R,13.17,N,06.75,M,,*34
\c:1544920784*5D\$GPGLL,3247.2168,N,07954.5639,W,164059.000,A,D*48	\c:1544921130*55\$IIVWT,099,R,12.82,N,06.60,M,,*3D
\c:1544920785*5C\$GPGLL,3247.222,N,07954.565,W,164058,A,A*52	\c:1544921132*57\$IIVWT,102,R,12.67,N,06.52,M,,*34
\c:1544920785*5C\$GPGLL,3247.2168,N,07954.5639,W,164100.000,A,D*45	\c:1544921135*50\$IIVWT,103,R,12.07,N,06.21,M,,*37
\c:1544920786*5F\$GPGLL,3247.2168,N,07954.5639,W,164101.000,A,D*44	\c:1544921136*53\$IIVWT,106,R,11.66,N,06.00,M,,*35
\c:1544920787*5E\$GPGLL,3247.222,N,07954.565,W,164100,A,A*5E	\c:1544921138*5D\$IIVWT,105,R,12.86,N,06.62,M,,*3F
\c:1544920787*5E\$GPGLL,3247.2168,N,07954.5639,W,164102.000,A,D*47	\c:1544921140*52\$IIVWT,098,R,12.57,N,06.47,M,,*31
\c:1544920788*51\$GPGLL,3247.2168,N,07954.5639,W,164103.000,A,D*46	\c:1544921142*50\$IIVWT,103,R,13.08,N,06.73,M,,*3E
\c:1544920789*50\$GPGLL,3247.222,N,07954.565,W,164102,A,A*5C	\c:1544921144*56\$IIVWT,097,R,14.42,N,07.42,M,,*38
\c:1544920789*50\$GPGLL,3247.2168,N,07954.5639,W,164104.000,A,D*41	\c:1544921146*54\$IIVWT,098,R,13.58,N,06.99,M,,*3C
\c:1544920790*58\$GPGLL,3247.2168,N,07954.5639,W,164105.000,A,D*40	\c:1544921148*5A\$IIVWT,102,R,13.87,N,07.14,M,,*38
\c:1544920791*59\$GPGLL,3247.222,N,07954.565,W,164104,A,A*5A	\c:1544921150*53\$IIVWT,105,R,14.15,N,07.28,M,,*3C
\c:1544920791*59\$GPGLL,3247.2168,N,07954.5639,W,164106.000,A,D*43	\c:1544921152*51\$IIVWT,102,R,14.26,N,07.34,M,,*36
\c:1544920792*5A\$GPGLL,3247.2168,N,07954.5639,W,164107.000,A,D*42	\c:1544921155*56\$IIVWT,103,R,14.24,N,07.33,M,,*32
\c:1544920793*5B\$GPGLL,3247.222,N,07954.565,W,164106,A,A*58	\c:1544921157*54\$IIVWT,100,R,13.41,N,06.90,M,,*3D
\c:1544920793*5B\$GPGLL,3247.2168,N,07954.5639,W,164108.000,A,D*4D	\c:1544921159*5A\$IIVWT,100,R,13.08,N,06.73,M,,*3D
\c:1544920794*5C\$GPGLL,3247.2168,N,07954.5639,W,164109.000,A,D*4C	\c:1544921161*51\$IIVWT,104,R,13.49,N,06.94,M,,*35
\c:1544920795*5D\$GPGLL,3247.222,N,07954.565,W,164108,A,A*56	\c:1544921163*53\$IIVWT,103,R,13.10,N,06.74,M,,*30
\c:1544920795*5D\$GPGLL,3247.2168,N,07954.5639,W,164110.000,A,D*44	\c:1544921165*55\$IIVWT,101,R,12.22,N,06.29,M,,*3A
\c:1544920796*5E\$GPGLL,3247.2168,N,07954.5639,W,164111.000,A,D*45	\c:1544921167*57\$IIVWT,104,R,12.88,N,06.63,M,,*31
\c:1544920797*5F\$GPGLL,3247.222,N,07954.565,W,164110,A,A*5F	\c:1544921169*59\$IIVWT,102,R,13.04,N,06.71,M,,*31
\c:1544920797*5F\$GPGLL,3247.2168,N,07954.5639,W,164112.000,A,D*46	\c:1544921171*50\$IIVWT,102,R,12.90,N,06.64,M,,*39
\c:1544920798*50\$GPGLL,3247.2168,N,07954.5639,W,164113.000,A,D*47	\c:1544921173*52\$IIVWT,104,R,12.51,N,06.44,M,,*30
\c:1544920799*51\$GPGLL,3247.222,N,07954.565,W,164112,A,A*5D	\c:1544921175*54\$IIVWT,104,R,13.14,N,06.76,M,,*31
\c:1544920799*51\$GPGLL,3247.2168,N,07954.5639,W,164114.000,A,D*40	\c:1544921177*56\$IIVWT,101,R,13.99,N,07.20,M,,*33
\c:1544920800*5E\$GPGLL,3247.2168,N,07954.5639,W,164115.000,A,D*41	\c:1544921179*58\$IIVWT,099,R,13.58,N,06.99,M,,*3D
\c:1544920801*5F\$GPGLL,3247.222,N,07954.565,W,164114,A,A*5B	\c:1544921181*5F\$IIVWT,098,R,12.80,N,06.59,M,,*34
\c:1544920801*5F\$GPGLL,3247.2168,N,07954.5639,W,164116.000,A,D*42	\c:1544921183*5D\$IIVWT,102,R,12.65,N,06.51,M,,*35
\c:1544920802*5C\$GPGLL,3247.2168,N,07954.5639,W,164117.000,A,D*43	\c:1544921185*5B\$IIVWT,104,R,12.12,N,06.24,M,,*31
\c:1544920803*5D\$GPGLL,3247.222,N,07954.565,W,164116,A,A*59	\c:1544921187*59\$IIVWT,097,R,11.66,N,06.00,M,,*3C
\c:1544920803*5D\$GPGLL,3247.2167,N,07954.5639,W,164118.000,A,D*43	\c:1544921189*57\$IIVWT,100,R,11.89,N,06.12,M,,*31
\c:1544920804*5A\$GPGLL,3247.2167,N,07954.5639,W,164119.000,A,D*42	\c:1544921191*5E\$IIVWT,104,R,11.91,N,06.13,M,,*3D
\c:1544920805*5B\$GPGLL,3247.222,N,07954.565,W,164118,A,A*57	\c:1544921193*5C\$IIVWT,100,R,12.18,N,06.27,M,,*3C
\c:1544920805*5B\$GPGLL,3247.2167,N,07954.5639,W,164120.000,A,D*48	\c:1544921195*5A\$IIVWT,105,R,13.95,N,07.18,M,,*30
\c:1544920806*58\$GPGLL,3247.2167,N,07954.5640,W,164121.000,A,D*47	\c:1544921197*58\$IIVWT,100,R,15.23,N,07.84,M,,*3B
\c:1544920807*59\$GPGLL,3247.222,N,07954.565,W,164120,A,A*5C	\c:1544921200*55\$IIVWT,102,R,14.81,N,07.62,M,,*38
\c:1544920807*59\$GPGLL,3247.2167,N,07954.5640,W,164122.000,A,D*44	\c:1544921202*57\$IIVWT,098,R,14.11,N,07.26,M,,*33
\c:1544920809*57\$GPGLL,3247.2167,N,07954.5640,W,164123.000,A,D*45	\c:1544921204*51\$IIVWT,096,R,13.60,N,07.00,M,,*38
\c:1544920809*57\$GPGLL,3247.222,N,07954.565,W,164122,A,A*5E	\c:1544921206*53\$IIVWT,101,R,13.74,N,07.07,M,,*35
\c:1544920809*57\$GPGLL,3247.2167,N,07954.5640,W,164124.000,A,D*42	\c:1544921208*5D\$IIVWT,100,R,12.69,N,06.53,M,,*39
\c:1544920810*5F\$GPGLL,3247.2167,N,07954.5640,W,164125.000,A,D*43	\c:1544921210*54\$IIVWT,099,R,12.40,N,06.38,M,,*3E
\c:1544920811*5E\$GPGLL,3247.222,N,07954.565,W,164124,A,A*58	\c:1544921212*56\$IIVWT,102,R,12.12,N,06.24,M,,*37
\c:1544920811*5E\$GPGLL,3247.2167,N,07954.5640,W,164126.000,A,D*40	\c:1544921214*50\$IIVWT,099,R,12.12,N,06.24,M,,*34
\c:1544920812*5D\$GPGLL,3247.2167,N,07954.5640,W,164127.000,A,D*41	\c:1544921216*52\$IIVWT,101,R,11.79,N,06.07,M,,*3B
\c:1544920813*5C\$GPGLL,3247.222,N,07954.565,W,164126,A,A*5A	\c:1544921218*5C\$IIVWT,104,R,12.36,N,06.36,M,,*34
\c:1544920813*5C\$GPGLL,3247.2167,N,07954.5640,W,164128.000,A,D*4E	\c:1544921220*57\$IIVWT,096,R,12.34,N,06.35,M,,*3F
\c:1544920814*5B\$GPGLL,3247.2167,N,07954.5640,W,164129.000,A,D*4F	\c:1544921222*55\$IIVWT,097,R,11.52,N,05.93,M,,*32
\c:1544920815*5A\$GPGLL,3247.2167,N,07954.5640,W,164130.000,A,D*47	\c:1544921224*53\$IIVWT,110,R,11.64,N,05.99,M,,*33
\c:1544920815*5A\$GPGLL,3247.222,N,07954.565,W,164128,A,A*54	\c:1544921226*51\$IIVWT,101,R,11.29,N,05.81,M,,*33
\c:1544920816*59\$GPGLL,3247.2167,N,07954.5640,W,164131.000,A,D*46	\c:1544921228*5F\$IIVWT,111,R,10.90,N,05.61,M,,*3F
\c:1544920817*58\$GPGLL,3247.2167,N,07954.5640,W,164132.000,A,D*45	\c:1544921230*56\$IIVWT,109,R,11.07,N,05.70,M,,*39
\c:1544920817*58\$GPGLL,3247.222,N,07954.565,W,164130,A,A*5D	\c:1544921232*54\$IIVWT,107,R,11.56,N,05.95,M,,*38
\c:1544920818*57\$GPGLL,3247.2167,N,07954.5640,W,164133.000,A,D*44	\c:1544921234*52\$IIVWT,108,R,11.70,N,06.02,M,,*3E
\c:1544920819*56\$GPGLL,3247.2167,N,07954.5640,W,164134.000,A,D*43	\c:1544921236*50\$IIVWT,103,R,11.31,N,05.82,M,,*3B
\c:1544920819*56\$GPGLL,3247.222,N,07954.565,W,164132,A,A*5F	\c:1544921238*5E\$IIVWT,107,R,12.14,N,06.25,M,,*35
\c:1544920820*5C\$GPGLL,3247.2167,N,07954.5640,W,164135.000,A,D*42	\c:1544921240*51\$IIVWT,107,R,11.31,N,05.82,M,,*3F
\c:1544920821*5D\$GPGLL,3247.2167,N,07954.5640,W,164136.000,A,D*41	\c:1544921243*52\$IIVWT,108,R,11.31,N,05.82,M,,*30
\c:1544920821*5D\$GPGLL,3247.222,N,07954.565,W,164134,A,A*59	\c:1544921245*54\$IIVWT,102,R,11.15,N,05.74,M,,*35
\c:1544920822*5E\$GPGLL,3247.2167,N,07954.5640,W,164137.000,A,D*40	\c:1544921247*56\$IIVWT,099,R,11.95,N,06.15,M,,*3A
\c:1544920823*5F\$GPGLL,3247.2168,N,07954.5640,W,164138.000,A,D*40	\c:1544921249*58\$IIVWT,101,R,11.48,N,05.91,M,,*35
\c:1544920824*58\$GPGLL,3247.222,N,07954.565,W,164136,A,A*5B	\c:1544921251*51\$IIVWT,097,R,11.25,N,05.79,M,,*36
\c:1544920824*58\$GPGLL,3247.2168,N,07954.5640,W,164139.000,A,D*41	\c:1544921253*53\$IIVWT,102,R,12.05,N,06.20,M,,*35
\c:1544920825*59\$GPGLL,3247.2168,N,07954.5640,W,164140.000,A,D*4F	\c:1544921255*55\$IIVWT,101,R,12.18,N,06.27,M,,*3D
\c:1544920826*5A\$GPGLL,3247.222,N,07954.565,W,164138,A,A*55	\c:1544921257*57\$IIVWT,100,R,11.52,N,05.93,M,,*3D
\c:1544920826*5A\$GPGLL,3247.2168,N,07954.5640,W,164141.000,A,D*4E	\c:1544921259*59\$IIVWT,101,R,11.44,N,05.89,M,,*30
\c:1544920827*5B\$GPGLL,3247.2168,N,07954.5640,W,164142.000,A,D*4D	\c:1544921261*52\$IIVWT,095,R,11.00,N,05.66,M,,*3D
\c:1544920828*54\$GPGLL,3247.222,N,07954.565,W,164140,A,A*5A	\c:1544921263*50\$IIVWT,098,R,09.58,N,04.93,M,,*3F
\c:1544920828*54\$GPGLL,3247.2168,N,07954.5640,W,164143.000,A,D*4C	\c:1544921265*56\$IIVWT,081,R,08.94,N,04.60,M,,*3A
\c:1544920829*55\$GPGLL,3247.2168,N,07954.5640,W,164144.000,A,D*4B	\c:1544921267*54\$IIVWT,091,R,09.46,N,04.87,M,,*3C
\c:1544920830*5D\$GPGLL,3247.222,N,07954.565,W,164142,A,A*58	\c:1544921269*5A\$IIVWT,089,R,10.20,N,05.25,M,,*34
\c:1544920830*5D\$GPGLL,3247.2168,N,07954.5640,W,164145.000,A,D*4A	\c:1544921271*53\$IIVWT,094,R,10.06,N,05.18,M,,*32
\c:1544920831*5C\$GPGLL,3247.2168,N,07954.5640,W,164146.000,A,D*49	\c:1544921273*51\$IIVWT,100,R,11.15,N,05.74,M,,*37
\c:1544920832*5F\$GPGLL,3247.222,N,07954.565,W,164144,A,A*5E	\c:1544921275*57\$IIVWT,099,R,10.65,N,05.48,M,,*3F
\c:1544920832*5F\$GPGLL,3247.2168,N,07954.5640,W,164147.000,A,D*48	\c:1544921277*55\$IIVWT,099,R,11.00,N,05.66,M,,*31
\c:1544920833*5E\$GPGLL,3247.2168,N,07954.5640,W,164148.000,A,D*47	\c:1544921279*5B\$IIVWT,108,R,10.10,N,05.20,M,,*3A
\c:1544920834*59\$GPGLL,3247.222,N,07954.565,W,164146,A,A*5C	\c:1544921281*5C\$IIVWT,098,R,10.88,N,05.60,M,,*37
\c:1544920834*59\$GPGLL,3247.2168,N,07954.5640,W,164149.000,A,D*46	\c:1544921283*5E\$IIVWT,096,R,10.57,N,05.44,M,,*3D
\c:1544920835*58\$GPGLL,3247.2168,N,07954.5640,W,164150.000,A,D*4E	\c:1544921286*5B\$IIVWT,097,R,11.09,N,05.71,M,,*30
\c:1544920836*5B\$GPGLL,3247.222,N,07954.565,W,164148,A,A*52	\c:1544921288*55\$IIVWT,088,R,09.54,N,04.91,M,,*30
\c:1544920836*5B\$GPGLL,3247.2168,N,07954.5640,W,164151.000,A,D*4F	\c:1544921290*5C\$IIVWT,095,R,09.66,N,04.97,M,,*3B
\c:1544920837*5A\$GPGLL,3247.2168,N,07954.5640,W,164152.000,A,D*4C	\c:1544921292*5E\$IIVWT,103,R,09.52,N,04.90,M,,*35
\c:1544920838*55\$GPGLL,3247.222,N,07954.565,W,164152,A,A*59	\c:1544921294*58\$IIVWT,102,R,09.66,N,04.97,M,,*34
\c:1544920838*55\$GPGLL,3247.2168,N,07954.5640,W,164153.000,A,D*4D	\c:1544921296*5A\$IIVWT,102,R,10.26,N,05.28,M,,*3D
\c:1544920839*54\$GPGLL,3247.2168,N,07954.5640,W,164154.000,A,D*4A	\c:1544921298*54\$IIVWT,098,R,10.80,N,05.56,M,,*3A
\c:1544920840*5A\$GPGLL,3247.222,N,07954.565,W,164154,A,A*5F	\c:1544921300*54\$IIVWT,099,R,10.67,N,05.49,M,,*3C
\c:1544920840*5A\$GPGLL,3247.2168,N,07954.5640,W,164155.000,A,D*4B	\c:1544921302*56\$IIVWT,097,R,10.34,N,05.32,M,,*38
\c:1544920841*5B\$GPGLL,3247.2168,N,07954.5640,W,164156.000,A,D*48	\c:1544921304*50\$IIVWT,097,R,10.30,N,05.30,M,,*3E
\c:1544920842*58\$GPGLL,3247.222,N,07954.565,W,164156,A,A*5D	\c:1544921306*52\$IIVWT,108,R,09.50,N,04.89,M,,*34
\c:1544920842*58\$GPGLL,3247.2168,N,07954.5640,W,164157.000,A,D*49	\c:1544921308*5C\$IIVWT,091,R,13.68,N,07.04,M,,*33
\c:1544920843*59\$GPGLL,3247.2168,N,07954.5640,W,164158.000,A,D*46	\c:1544921310*55\$IIVWT,091,R,14.96,N,07.70,M,,*36
\c:1544920844*5E\$GPGLL,3247.222,N,07954.565,W,164158,A,A*53	\c:1544921312*57\$IIVWT,094,R,14.13,N,07.27,M,,*3C
\c:1544920844*5E\$GPGLL,3247.2168,N,07954.5640,W,164159.000,A,D*47	\c:1544921314*51\$IIVWT,107,R,13.97,N,07.19,M,,*31
\c:1544920845*5F\$GPGLL,3247.2168,N,07954.5640,W,164200.000,A,D*48	\c:1544921316*53\$IIVWT,105,R,14.05,N,07.23,M,,*36
\c:1544920846*5C\$GPGLL,3247.222,N,07954.565,W,164200,A,A*5D	\c:1544921318*5D\$IIVWT,115,R,11.97,N,06.16,M,,*3E
\c:1544920846*5C\$GPGLL,3247.2168,N,07954.5640,W,164201.000,A,D*49	\c:1544921320*56\$IIVWT,099,R,13.62,N,07.01,M,,*34
\c:1544920847*5D\$GPGLL,3247.2168,N,07954.5640,W,164202.000,A,D*4A	\c:1544921322*54\$IIVWT,097,R,13.33,N,06.86,M,,*30
\c:1544920848*52\$GPGLL,3247.222,N,07954.565,W,164202,A,A*5F	\c:1544921324*52\$IIVWT,100,R,12.84,N,06.61,M,,*3B
\c:1544920848*52\$GPGLL,3247.2168,N,07954.5640,W,164203.000,A,D*4B	\c:1544921326*50\$IIVWT,100,R,13.15,N,06.77,M,,*35
\c:1544920849*53\$GPGLL,3247.2168,N,07954.5640,W,164204.000,A,D*4C	\c:1544921329*5F\$IIVWT,101,R,13.14,N,06.76,M,,*34
\c:1544920850*5B\$GPGLL,3247.222,N,07954.565,W,164204,A,A*59	\c:1544921331*56\$IIVWT,104,R,12.55,N,06.46,M,,*36
\c:1544920850*5B\$GPGLL,3247.2168,N,07954.5639,W,164205.000,A,D*43	\c:1544921333*54\$IIVWT,110,R,11.62,N,05.98,M,,*34
\c:1544920851*5A\$GPGLL,3247.2168,N,07954.5639,W,164206.000,A,D*40	\c:1544921335*52\$IIVWT,129,R,10.98,N,05.65,M,,*38
\c:1544920852*59\$GPGLL,3247.222,N,07954.565,W,164206,A,A*5B	\c:1544921337*50\$IIVWT,116,R,10.04,N,05.17,M,,*34
\c:1544920852*59\$GPGLL,3247.2168,N,07954.5639,W,164207.000,A,D*41	\c:1544921339*5E\$IIVWT,111,R,08.88,N,04.57,M,,*3B
\c:1544920853*58\$GPGLL,3247.2168,N,07954.5639,W,164208.000,A,D*4E	\c:1544921341*51\$IIVWT,104,R,10.20,N,05.25,M,,*30
\c:1544920854*5F\$GPGLL,3247.222,N,07954.565,W,164208,A,A*55	\c:1544921343*53\$IIVWT,101,R,10.16,N,05.23,M,,*36
\c:1544920854*5F\$GPGLL,3247.2168,N,07954.5639,W,164209.000,A,D*4F	\c:1544921345*55\$IIVWT,100,R,11.95,N,06.15,M,,*3B
\c:1544920855*5E\$GPGLL,3247.2168,N,07954.5639,W,164210.000,A,D*47	\c:1544921347*57\$IIVWT,098,R,13.31,N,06.85,M,,*3E
\c:1544920856*5D\$GPGLL,3247.222,N,07954.565,W,164210,A,A*5C	\c:1544921349*59\$IIVWT,097,R,13.80,N,07.10,M,,*36
\c:1544920856*5D\$GPGLL,3247.2168,N,07954.5639,W,164211.000,A,D*46	\c:1544921351*50\$IIVWT,099,R,13.95,N,07.18,M,,*34
\c:1544920857*5C\$GPGLL,3247.2168,N,07954.5639,W,164212.000,A,D*45	\c:1544921353*52\$IIVWT,095,R,13.93,N,07.17,M,,*31
\c:1544920859*52\$GPGLL,3247.2168,N,07954.5639,W,164213.000,A,D*44	\c:1544921355*54\$IIVWT,094,R,13.25,N,06.82,M,,*30
\c:1544920859*52\$GPGLL,3247.222,N,07954.565,W,164212,A,A*5E	\c:1544921357*56\$IIVWT,097,R,13.02,N,06.70,M,,*3B
\c:1544920859*52\$GPGLL,3247.2168,N,07954.5639,W,164214.000,A,D*43	\c:1544921359*58\$IIVWT,093,R,13.35,N,06.87,M,,*33
\c:1544920860*58\$GPGLL,3247.2168,N,07954.5639,W,164215.000,A,D*42	\c:1544921361*53\$IIVWT,101,R,13.45,N,06.92,M,,*3A
\c:1544920860*58\$GPGLL,3247.222,N,07954.565,W,164214,A,A*58	\c:1544921363*51\$IIVWT,104,R,13.68,N,07.04,M,,*3E
\c:1544920861*59\$GPGLL,3247.2168,N,07954.5639,W,164216.000,A,D*41	\c:1544921365*57\$IIVWT,099,R,12.88,N,06.63,M,,*34
\c:1544920862*5A\$GPGLL,3247.2168,N,07954.5639,W,164217.000,A,D*40	\c:1544921367*55\$IIVWT,105,R,12.71,N,06.54,M,,*32
\c:1544920862*5A\$GPGLL,3247.222,N,07954.565,W,164216,A,A*5A	\c:1544921369*5B\$IIVWT,100,R,12.05,N,06.20,M,,*37
\c:1544920863*5B\$GPGLL,3247.2167,N,07954.5639,W,164218.000,A,D*40	\c:1544921372*51\$IIVWT,095,R,12.38,N,06.37,M,,*32
\c:1544920864*5C\$GPGLL,3247.2167,N,07954.5639,W,164219.000,A,D*41	\c:1544921374*57\$IIVWT,094,R,12.77,N,06.57,M,,*3E
\c:1544920864*5C\$GPGLL,3247.222,N,07954.565,W,164218,A,A*54	\c:1544921376*55\$IIVWT,092,R,12.40,N,06.38,M,,*35
\c:1544920865*5D\$GPGLL,3247.2167,N,07954.5640,W,164220.000,A,D*45	\c:1544921378*5B\$IIVWT,100,R,12.12,N,06.24,M,,*35
\c:1544920866*5E\$GPGLL,3247.2167,N,07954.5640,W,164221.000,A,D*44	\c:1544921380*5C\$IIVWT,095,R,12.28,N,06.32,M,,*36
\c:1544920867*5F\$GPGLL,3247.222,N,07954.565,W,164220,A,A*5F	\c:1544921382*5E\$IIVWT,098,R,13.08,N,06.73,M,,*3D
\c:1544920867*5F\$GPGLL,3247.2167,N,07954.5640,W,164222.000,A,D*47	\c:1544921384*58\$IIVWT,103,R,13.43,N,06.91,M,,*3D
\c:1544920868*50\$GPGLL,3247.2167,N,07954.5640,W,164223.000,A,D*46	\c:1544921386*5A\$IIVWT,101,R,12.98,N,06.68,M,,*3E
\c:1544920869*51\$GPGLL,3247.222,N,07954.565,W,164222,A,A*5D	\c:1544921388*54\$IIVWT,086,R,12.82,N,06.60,M,,*33
\c:1544920869*51\$GPGLL,3247.2167,N,07954.5640,W,164224.000,A,D*41	\c:1544921390*5D\$IIVWT,091,R,12.79,N,06.58,M,,*3A
\c:1544920870*59\$GPGLL,3247.2167,N,07954.5640,W,164225.000,A,D*40	\c:1544921392*5F\$IIVWT,093,R,11.81,N,06.08,M,,*39
\c:1544920871*58\$GPGLL,3247.222,N,07954.565,W,164224,A,A*5B	\c:1544921394*59\$IIVWT,101,R,11.06,N,05.69,M,,*38
\c:1544920871*58\$GPGLL,3247.2167,N,07954.5640,W,164226.000,A,D*43	\c:1544921396*5B\$IIVWT,102,R,11.37,N,05.85,M,,*3B
\c:1544920872*5B\$GPGLL,3247.2167,N,07954.5640,W,164227.000,A,D*42	\c:1544921398*55\$IIVWT,097,R,11.95,N,06.15,M,,*34
\c:1544920873*5A\$GPGLL,3247.222,N,07954.565,W,164226,A,A*59	\c:1544921400*53\$IIVWT,093,R,12.73,N,06.55,M,,*3F
\c:1544920873*5A\$GPGLL,3247.2167,N,07954.5640,W,164228.000,A,D*4D	\c:1544921402*51\$IIVWT,092,R,12.79,N,06.58,M,,*39
\c:1544920874*5D\$GPGLL,3247.2167,N,07954.5640,W,164229.000,A,D*4C	\c:1544921404*57\$IIVWT,089,R,14.11,N,07.26,M,,*33
\c:1544920875*5C\$GPGLL,3247.222,N,07954.565,W,164228,A,A*57	\c:1544921406*55\$IIVWT,090,R,14.67,N,07.55,M,,*3E
\c:1544920875*5C\$GPGLL,3247.2167,N,07954.5640,W,164230.000,A,D*44	\c:1544921408*5B\$IIVWT,093,R,13.89,N,07.15,M,,*3E
\c:1544920876*5F\$GPGLL,3247.2167,N,07954.5640,W,164231.000,A,D*45	\c:1544921410*52\$IIVWT,095,R,13.50,N,06.95,M,,*35
\c:1544920877*5E\$GPGLL,3247.222,N,07954.565,W,164230,A,A*5E	\c:1544921413*51\$IIVWT,108,R,13.02,N,06.70,M,,*3C
\c:1544920877*5E\$GPGLL,3247.2168,N,07954.5640,W,164232.000,A,D*49	\c:1544921415*57\$IIVWT,105,R,12.71,N,06.54,M,,*32
\c:1544920878*51\$GPGLL,3247.2168,N,07954.5640,W,164233.000,A,D*48	\c:1544921417*55\$IIVWT,098,R,12.12,N,06.24,M,,*35
\c:1544920879*50\$GPGLL,3247.222,N,07954.565,W,164232,A,A*5C	\c:1544921419*5B\$IIVWT,096,R,11.48,N,05.91,M,,*3A
\c:1544920879*50\$GPGLL,3247.2168,N,07954.5640,W,164234.000,A,D*4F	\c:1544921421*50\$IIVWT,097,R,13.17,N,06.78,M,,*37
\c:1544920880*56\$GPGLL,3247.2168,N,07954.5640,W,164235.000,A,D*4E	\c:1544921423*52\$IIVWT,101,R,14.13,N,07.27,M,,*31
\c:1544920881*57\$GPGLL,3247.222,N,07954.565,W,164234,A,A*5A	\c:1544921425*54\$IIVWT,100,R,14.81,N,07.62,M,,*3A
\c:1544920881*57\$GPGLL,3247.2168,N,07954.5640,W,164236.000,A,D*4D	\c:1544921427*56\$IIVWT,101,R,14.79,N,07.61,M,,*3F
\c:1544920882*54\$GPGLL,3247.2168,N,07954.5640,W,164237.000,A,D*4C	\c:1544921429*58\$IIVWT,100,R,15.25,N,07.85,M,,*3C
\c:1544920883*55\$GPGLL,3247.222,N,07954.565,W,164236,A,A*58	\c:1544921431*51\$IIVWT,099,R,14.73,N,07.58,M,,*3F
\c:1544920883*55\$GPGLL,3247.2168,N,07954.5640,W,164238.000,A,D*43	\c:1544921433*53\$IIVWT,099,R,14.65,N,07.54,M,,*34
\c:1544920884*52\$GPGLL,3247.2168,N,07954.5640,W,164239.000,A,D*42	\c:1544921435*55\$IIVWT,099,R,15.22,N,07.83,M,,*3C
\c:1544920885*53\$GPGLL,3247.222,N,07954.565,W,164238,A,A*56	\c:1544921437*57\$IIVWT,099,R,15.55,N,08.00,M,,*38
\c:1544920885*53\$GPGLL,3247.2168,N,07954.5640,W,164240.000,A,D*4C	\c:1544921439*59\$IIVWT,099,R,16.79,N,08.64,M,,*37
\c:1544920886*50\$GPGLL,3247.2168,N,07954.5640,W,164241.000,A,D*4D	\c:1544921441*56\$IIVWT,103,R,16.03,N,08.25,M,,*3D
\c:1544920887*51\$GPGLL,3247.222,N,07954.565,W,164240,A,A*59	\c:1544921443*54\$IIVWT,102,R,15.90,N,08.18,M,,*3B
\c:1544920887*51\$GPGLL,3247.2168,N,07954.5640,W,164242.000,A,D*4E	\c:1544921445*52\$IIVWT,098,R,14.55,N,07.49,M,,*3A
\c:1544920888*5E\$GPGLL,3247.2168,N,07954.5640,W,164243.000,A,D*4F	\c:1544921447*50\$IIVWT,099,R,14.22,N,07.32,M,,*37
\c:1544920889*5F\$GPGLL,3247.222,N,07954.565,W,164242,A,A*5B	\c:1544921449*5E\$IIVWT,097,R,13.68,N,07.04,M,,*35
\c:1544920889*5F\$GPGLL,3247.2168,N,07954.5640,W,164244.000,A,D*48	\c:1544921451*57\$IIVWT,097,R,12.92,N,06.65,M,,*37
\c:1544920890*57\$GPGLL,3247.2168,N,07954.5640,W,164245.000,A,D*49	\c:1544921453*55\$IIVWT,101,R,12.65,N,06.51,M,,*36
\c:1544920891*56\$GPGLL,3247.222,N,07954.565,W,164244,A,A*5D	\c:1544921456*50\$IIVWT,104,R,12.46,N,06.41,M,,*33
\c:1544920891*56\$GPGLL,3247.2168,N,07954.5640,W,164246.000,A,D*4A	\c:1544921458*5E\$IIVWT,103,R,12.88,N,06.63,M,,*36
\c:1544920892*55\$GPGLL,3247.2168,N,07954.5640,W,164247.000,A,D*4B	\c:1544921460*55\$IIVWT,099,R,12.26,N,06.31,M,,*37
\c:1544920893*54\$GPGLL,3247.222,N,07954.565,W,164246,A,A*5F	\c:1544921462*57\$IIVWT,099,R,11.95,N,06.15,M,,*3A
\c:1544920893*54\$GPGLL,3247.2168,N,07954.5640,W,164248.000,A,D*44	\c:1544921464*51\$IIVWT,102,R,11.54,N,05.94,M,,*3E
\c:1544920894*53\$GPGLL,3247.2168,N,07954.5640,W,164249.000,A,D*45	\c:1544921466*53\$IIVWT,098,R,11.48,N,05.91,M,,*34
\c:1544920895*52\$GPGLL,3247.222,N,07954.565,W,164248,A,A*51	\c:1544921468*5D\$IIVWT,102,R,12.38,N,06.37,M,,*3D
\c:1544920895*52\$GPGLL,3247.2168,N,07954.5640,W,164250.000,A,D*4D	\c:1544921470*54\$IIVWT,100,R,12.32,N,06.34,M,,*36
\c:1544920896*51\$GPGLL,3247.2168,N,07954.5640,W,164251.000,A,D*4C	\c:1544921472*56\$IIVWT,098,R,13.60,N,07.00,M,,*36
\c:1544920897*50\$GPGLL,3247.222,N,07954.565,W,164250,A,A*58	\c:1544921474*50\$IIVWT,100,R,12.34,N,06.35,M,,*31
\c:1544920897*50\$GPGLL,3247.2168,N,07954.5640,W,164252.000,A,D*4F	\c:1544921476*52\$IIVWT,094,R,12.88,N,06.63,M,,*39
\c:1544920898*5F\$GPGLL,3247.2168,N,07954.5640,W,164253.000,A,D*4E	\c:1544921478*5C\$IIVWT,085,R,13.52,N,06.96,M,,*35
\c:1544920899*5E\$GPGLL,3247.222,N,07954.565,W,164252,A,A*5A	\c:1544921480*5B\$IIVWT,093,R,13.68,N,07.04,M,,*31
\c:1544920899*5E\$GPGLL,3247.2168,N,07954.5640,W,164254.000,A,D*49	\c:1544921482*59\$IIVWT,088,R,12.26,N,06.31,M,,*37
\c:1544920900*5F\$GPGLL,3247.2168,N,07954.5640,W,164255.000,A,D*48	\c:1544921484*5F\$IIVWT,092,R,10.86,N,05.59,M,,*39
\c:1544920901*5E\$GPGLL,3247.2168,N,07954.5640,W,164256.000,A,D*4B	\c:1544921486*5D\$IIVWT,093,R,11.42,N,05.88,M,,*3D
\c:1544920901*5E\$GPGLL,3247.222,N,07954.565,W,164254,A,A*5C	\c:1544921488*53\$IIVWT,096,R,12.01,N,06.18,M,,*36
\c:1544920902*5D\$GPGLL,3247.2168,N,07954.5640,W,164257.000,A,D*4A	\c:1544921490*5A\$IIVWT,094,R,12.55,N,06.46,M,,*3E
\c:1544920903*5C\$GPGLL,3247.2168,N,07954.5640,W,164258.000,A,D*45	\c:1544921492*58\$IIVWT,093,R,11.54,N,05.94,M,,*37
\c:1544920903*5C\$GPGLL,3247.222,N,07954.565,W,164257,A,A*5F	\c:1544921494*5E\$IIVWT,097,R,10.88,N,05.60,M,,*38
\c:1544920904*5B\$GPGLL,3247.2168,N,07954.5640,W,164259.000,A,D*44	\c:1544921497*5D\$IIVWT,109,R,11.39,N,05.86,M,,*3D
\c:1544920905*5A\$GPGLL,3247.2168,N,07954.5640,W,164300.000,A,D*49	\c:1544921499*53\$IIVWT,106,R,11.02,N,05.67,M,,*35
\c:1544920905*5A\$GPGLL,3247.222,N,07954.565,W,164259,A,A*51	\c:1544921501*53\$IIVWT,102,R,11.06,N,05.69,M,,*3B
\c:1544920906*59\$GPGLL,3247.2168,N,07954.5640,W,164301.000,A,D*48	\c:1544921503*51\$IIVWT,094,R,10.26,N,05.28,M,,*33
\c:1544920907*58\$GPGLL,3247.2168,N,07954.5640,W,164302.000,A,D*4B	\c:1544921505*57\$IIVWT,102,R,10.36,N,05.33,M,,*36
\c:1544920907*58\$GPGLL,3247.223,N,07954.565,W,164301,A,A*5C	\c:1544921507*55\$IIVWT,100,R,11.52,N,05.93,M,,*3D
\c:1544920908*57\$GPGLL,3247.2168,N,07954.5640,W,164303.000,A,D*4A	\c:1544921509*5B\$IIVWT,100,R,12.24,N,06.30,M,,*35
\c:1544920909*56\$GPGLL,3247.2168,N,07954.5640,W,164304.000,A,D*4D	\c:1544921533*52\$IIVWT,117,R,08.33,N,04.29,M,,*34
\c:1544920910*5E\$GPGLL,3247.223,N,07954.565,W,164303,A,A*5E	\c:1544921535*54\$IIVWT,120,R,08.22,N,04.23,M,,*3A
\c:1544920911*5F\$GPGLL,3247.2168,N,07954.5640,W,164305.000,A,D*4C	\c:1544921537*56\$IIVWT,123,R,08.80,N,04.53,M,,*36
\c:1544920911*5F\$GPGLL,3247.2168,N,07954.5640,W,164306.000,A,D*4F	\c:1544921539*58\$IIVWT,122,R,08.65,N,04.45,M,,*3B
\c:1544920912*5C\$GPGLL,3247.223,N,07954.565,W,164305,A,A*58	\c:1544921541*57\$IIVWT,128,R,08.41,N,04.33,M,,*36
\c:1544920912*5C\$GPGLL,3247.2168,N,07954.5640,W,164307.000,A,D*4E	\c:1544921544*52\$IIVWT,114,R,08.57,N,04.41,M,,*3B
\c:1544920913*5D\$GPGLL,3247.2168,N,07954.5640,W,164308.000,A,D*41	\c:1544921546*50\$IIVWT,116,R,09.17,N,04.72,M,,*3C
\c:1544920914*5A\$GPGLL,3247.223,N,07954.565,W,164307,A,A*5A	\c:1544921548*5E\$IIVWT,113,R,08.74,N,04.50,M,,*3D
\c:1544920914*5A\$GPGLL,3247.2168,N,07954.5640,W,164309.000,A,D*40	\c:1544921550*57\$IIVWT,127,R,08.88,N,04.57,M,,*3E
\c:1544920916*58\$GPGLL,3247.2168,N,07954.5641,W,164310.000,A,D*49	\c:1544921552*55\$IIVWT,119,R,08.68,N,04.47,M,,*3C
\c:1544920916*58\$GPGLL,3247.223,N,07954.565,W,164309,A,A*54	\c:1544921554*53\$IIVWT,111,R,09.69,N,04.99,M,,*37
\c:1544920916*58\$GPGLL,3247.2167,N,07954.5642,W,164311.000,A,D*44	\c:1544921556*51\$IIVWT,113,R,09.44,N,04.86,M,,*34
\c:1544920917*59\$GPGLL,3247.2167,N,07954.5642,W,164312.000,A,D*47	\c:1544921558*5F\$IIVWT,101,R,07.71,N,03.97,M,,*38
\c:1544920918*56\$GPGLL,3247.223,N,07954.565,W,164311,A,A*5D	\c:1544921560*54\$IIVWT,100,R,08.35,N,04.30,M,,*3C
\c:1544920918*56\$GPGLL,3247.2167,N,07954.5643,W,164313.000,A,D*47	\c:1544921563*57\$IIVWT,073,R,07.71,N,03.97,M,,*3C
\c:1544920919*57\$GPGLL,3247.2167,N,07954.5643,W,164314.000,A,D*40	\c:1544921564*50\$IIVWT,092,R,07.11,N,03.66,M,,*3B
\c:1544920920*5D\$GPGLL,3247.223,N,07954.565,W,164313,A,A*5F	\c:1544921566*52\$IIVWT,104,R,07.17,N,03.69,M,,*3C
\c:1544920920*5D\$GPGLL,3247.2167,N,07954.5643,W,164315.000,A,D*41	\c:1544921568*5C\$IIVWT,120,R,07.61,N,03.92,M,,*3F
\c:1544920921*5C\$GPGLL,3247.2167,N,07954.5643,W,164316.000,A,D*42	\c:1544921570*55\$IIVWT,096,R,07.81,N,04.02,M,,*33
\c:1544920922*5F\$GPGLL,3247.223,N,07954.565,W,164315,A,A*59	\c:1544921572*57\$IIVWT,098,R,06.70,N,03.45,M,,*36
\c:1544920922*5F\$GPGLL,3247.2167,N,07954.5643,W,164317.000,A,D*43	\c:1544921574*51\$IIVWT,105,R,06.35,N,03.27,M,,*36
\c:1544920923*5E\$GPGLL,3247.2167,N,07954.5643,W,164318.000,A,D*4C	\c:1544921576*53\$IIVWT,111,R,08.31,N,04.28,M,,*31
\c:1544920924*59\$GPGLL,3247.223,N,07954.565,W,164317,A,A*5B	\c:1544921578*5D\$IIVWT,095,R,11.23,N,05.78,M,,*33
\c:1544920924*59\$GPGLL,3247.2167,N,07954.5643,W,164319.000,A,D*4D	\c:1544921580*5A\$IIVWT,122,R,08.18,N,04.21,M,,*33
\c:1544920925*58\$GPGLL,3247.2167,N,07954.5643,W,164320.000,A,D*47	\c:1544921582*58\$IIVWT,130,R,07.40,N,03.81,M,,*3F
\c:1544920926*5B\$GPGLL,3247.223,N,07954.565,W,164319,A,A*55	\c:1544921585*5F\$IIVWT,157,R,05.61,N,02.89,M,,*36
\c:1544920926*5B\$GPGLL,3247.2167,N,07954.5643,W,164321.000,A,D*46	\c:1544921587*5D\$IIVWT,124,R,05.13,N,02.64,M,,*34
\c:1544920927*5A\$GPGLL,3247.2167,N,07954.5643,W,164322.000,A,D*45	\c:1544921589*53\$IIVWT,139,R,04.82,N,02.48,M,,*3F
\c:1544920928*55\$GPGLL,3247.223,N,07954.565,W,164321,A,A*5E	\c:1544921591*5A\$IIVWT,109,R,04.00,N,02.06,M,,*3C
\c:1544920928*55\$GPGLL,3247.2167,N,07954.5643,W,164323.000,A,D*44	\c:1544921593*58\$IIVWT,095,R,04.82,N,02.48,M,,*38
\c:1544920929*54\$GPGLL,3247.2167,N,07954.5643,W,164324.000,A,D*43	\c:1544921595*5E\$IIVWT,092,R,06.29,N,03.24,M,,*37
\c:1544920930*5C\$GPGLL,3247.223,N,07954.565,W,164323,A,A*5C	\c:1544921597*5C\$IIVWT,106,R,10.98,N,05.65,M,,*35
\c:1544920930*5C\$GPGLL,3247.2167,N,07954.5643,W,164325.000,A,D*42	\c:1544921599*52\$IIVWT,097,R,10.26,N,05.28,M,,*30
\c:1544920931*5D\$GPGLL,3247.2167,N,07954.5643,W,164326.000,A,D*41	\c:1544921601*50\$IIVWT,106,R,10.34,N,05.32,M,,*31
\c:1544920932*5E\$GPGLL,3247.223,N,07954.565,W,164325,A,A*5A	\c:1544921603*52\$IIVWT,105,R,10.65,N,05.48,M,,*3B
\c:1544920932*5E\$GPGLL,3247.2167,N,07954.5643,W,164327.000,A,D*40	\c:1544921605*54\$IIVWT,138,R,17.20,N,08.85,M,,*3F
\c:1544920933*5F\$GPGLL,3247.2167,N,07954.5643,W,164328.000,A,D*4F	\c:1544921607*56\$IIVWT,135,R,17.00,N,08.75,M,,*3F
\c:1544920934*58\$GPGLL,3247.223,N,07954.565,W,164327,A,A*58	\c:1544921609*58\$IIVWT,136,R,17.06,N,08.78,M,,*37
\c:1544920934*58\$GPGLL,3247.2167,N,07954.5643,W,164329.000,A,D*4E	\c:1544921611*51\$IIVWT,135,R,16.56,N,08.52,M,,*38
\c:1544920935*59\$GPGLL,3247.2167,N,07954.5643,W,164330.000,A,D*46	\c:1544921613*53\$IIVWT,136,R,17.53,N,09.02,M,,*3B
\c:1544920936*5A\$GPGLL,3247.223,N,07954.565,W,164329,A,A*56	\c:1544921615*55\$IIVWT,140,R,17.39,N,08.95,M,,*39
\c:1544920936*5A\$GPGLL,3247.2167,N,07954.5643,W,164331.000,A,D*47	\c:1544921617*57\$IIVWT,143,R,16.71,N,08.60,M,,*3D
\c:1544920937*5B\$GPGLL,3247.2167,N,07954.5643,W,164332.000,A,D*44	\c:1544921619*59\$IIVWT,139,R,16.87,N,08.68,M,,*31
\c:1544920938*54\$GPGLL,3247.223,N,07954.565,W,164331,A,A*5F	\c:1544921621*52\$IIVWT,136,R,16.60,N,08.54,M,,*38
\c:1544920938*54\$GPGLL,3247.2167,N,07954.5643,W,164333.000,A,D*45	\c:1544921623*50\$IIVWT,137,R,16.81,N,08.65,M,,*34
\c:1544920939*55\$GPGLL,3247.2167,N,07954.5643,W,164334.000,A,D*42	\c:1544921625*56\$IIVWT,140,R,17.02,N,08.76,M,,*3C
\c:1544920940*5B\$GPGLL,3247.223,N,07954.565,W,164333,A,A*5D	\c:1544921628*5B\$IIVWT,146,R,17.26,N,08.88,M,,*3D
\c:1544920940*5B\$GPGLL,3247.2167,N,07954.5643,W,164335.000,A,D*43	\c:1544921630*52\$IIVWT,143,R,16.67,N,08.58,M,,*31
\c:1544920941*5A\$GPGLL,3247.2167,N,07954.5644,W,164336.000,A,D*47	\c:1544921632*50\$IIVWT,135,R,16.61,N,08.55,M,,*3B
\c:1544920942*59\$GPGLL,3247.223,N,07954.565,W,164335,A,A*5B	\c:1544921634*56\$IIVWT,133,R,16.67,N,08.58,M,,*36
\c:1544920942*59\$GPGLL,3247.2167,N,07954.5644,W,164337.000,A,D*46	\c:1544921636*54\$IIVWT,134,R,16.40,N,08.44,M,,*39
\c:1544920943*58\$GPGLL,3247.2167,N,07954.5644,W,164338.000,A,D*49	\c:1544921638*5A\$IIVWT,136,R,16.91,N,08.70,M,,*30
\c:1544920944*5F\$GPGLL,3247.2167,N,07954.5644,W,164339.000,A,D*48	\c:1544921640*55\$IIVWT,139,R,17.92,N,09.22,M,,*3B
\c:1544920944*5F\$GPGLL,3247.223,N,07954.565,W,164337,A,A*59	\c:1544921642*57\$IIVWT,136,R,17.31,N,08.91,M,,*34
\c:1544920945*5E\$GPGLL,3247.2167,N,07954.5644,W,164340.000,A,D*46	\c:1544921644*51\$IIVWT,135,R,17.24,N,08.87,M,,*34
\c:1544920946*5D\$GPGLL,3247.2167,N,07954.5644,W,164341.000,A,D*47	\c:1544921646*53\$IIVWT,134,R,17.55,N,09.03,M,,*3E
\c:1544920946*5D\$GPGLL,3247.223,N,07954.564,W,164339,A,A*56	\c:1544921648*5D\$IIVWT,134,R,17.84,N,09.18,M,,*38
\c:1544920947*5C\$GPGLL,3247.2167,N,07954.5644,W,164342.000,A,D*44	\c:1544921650*54\$IIVWT,130,R,17.80,N,09.16,M,,*36
\c:1544920948*53\$GPGLL,3247.2167,N,07954.5644,W,164343.000,A,D*45	\c:1544921652*56\$IIVWT,130,R,17.98,N,09.25,M,,*3F
\c:1544920948*53\$GPGLL,3247.223,N,07954.564,W,164341,A,A*59	\c:1544921654*50\$IIVWT,134,R,18.09,N,09.31,M,,*39
\c:1544920949*52\$GPGLL,3247.2167,N,07954.5644,W,164344.000,A,D*42	\c:1544921656*52\$IIVWT,134,R,17.31,N,08.91,M,,*36
\c:1544920950*5A\$GPGLL,3247.2167,N,07954.5644,W,164345.000,A,D*43	\c:1544921658*5C\$IIVWT,135,R,18.05,N,09.29,M,,*3D
\c:1544920950*5A\$GPGLL,3247.223,N,07954.564,W,164343,A,A*5B	\c:1544921660*57\$IIVWT,127,R,16.85,N,08.67,M,,*33
\c:1544920952*58\$GPGLL,3247.2167,N,07954.5644,W,164346.000,A,D*40	\c:1544921662*55\$IIVWT,137,R,17.86,N,09.19,M,,*38
\c:1544920952*58\$GPGLL,3247.2167,N,07954.5644,W,164347.000,A,D*41	\c:1544921664*53\$IIVWT,136,R,17.59,N,09.05,M,,*36
\c:1544920953*59\$GPGLL,3247.223,N,07954.564,W,164345,A,A*5D	\c:1544921666*51\$IIVWT,138,R,17.70,N,09.11,M,,*36
\c:1544920953*59\$GPGLL,3247.2167,N,07954.5644,W,164348.000,A,D*4E	\c:1544921668*5F\$IIVWT,140,R,18.00,N,09.26,M,,*35
\c:1544920954*5E\$GPGLL,3247.2167,N,07954.5644,W,164349.000,A,D*4F	\c:1544921671*57\$IIVWT,134,R,17.22,N,08.86,M,,*32
\c:1544920955*5F\$GPGLL,3247.223,N,07954.564,W,164347,A,A*5F	\c:1544921673*55\$IIVWT,130,R,17.63,N,09.07,M,,*3B
\c:1544920955*5F\$GPGLL,3247.2167,N,07954.5644,W,164350.000,A,D*47	\c:1544921675*53\$IIVWT,132,R,18.03,N,09.28,M,,*3D
\c:1544920956*5C\$GPGLL,3247.2167,N,07954.5644,W,164351.000,A,D*46	\c:1544921677*51\$IIVWT,131,R,16.63,N,08.56,M,,*3E
\c:1544920957*5D\$GPGLL,3247.223,N,07954.564,W,164349,A,A*51	\c:1544921679*5F\$IIVWT,132,R,16.91,N,08.70,M,,*34
\c:1544920957*5D\$GPGLL,3247.2167,N,07954.5644,W,164352.000,A,D*45	\c:1544921681*58\$IIVWT,131,R,16.71,N,08.60,M,,*38
\c:1544920958*52\$GPGLL,3247.2167,N,07954.5644,W,164353.000,A,D*44	\c:1544921683*5A\$IIVWT,128,R,18.07,N,09.30,M,,*3B
\c:1544920959*53\$GPGLL,3247.223,N,07954.564,W,164351,A,A*58	\c:1544921685*5C\$IIVWT,127,R,18.07,N,09.30,M,,*34
\c:1544920959*53\$GPGLL,3247.2167,N,07954.5644,W,164354.000,A,D*43	\c:1544921687*5E\$IIVWT,126,R,17.61,N,09.06,M,,*3F
\c:1544920960*59\$GPGLL,3247.2167,N,07954.5644,W,164355.000,A,D*42	\c:1544921689*50\$IIVWT,128,R,17.65,N,09.08,M,,*3B
\c:1544920961*58\$GPGLL,3247.223,N,07954.564,W,164353,A,A*5A	\c:1544921691*59\$IIVWT,126,R,17.49,N,09.00,M,,*33
\c:1544920961*58\$GPGLL,3247.2167,N,07954.5644,W,164356.000,A,D*41	\c:1544921693*5B\$IIVWT,128,R,18.05,N,09.29,M,,*31
\c:1544920962*5B\$GPGLL,3247.2167,N,07954.5644,W,164357.000,A,D*40	\c:1544921695*5D\$IIVWT,132,R,18.11,N,09.32,M,,*35
\c:1544920963*5A\$GPGLL,3247.223,N,07954.564,W,164355,A,A*5C	\c:1544921697*5F\$IIVWT,129,R,17.10,N,08.80,M,,*39
\c:1544920963*5A\$GPGLL,3247.2167,N,07954.5644,W,164358.000,A,D*4F	\c:1544921699*51\$IIVWT,130,R,17.16,N,08.83,M,,*34
\c:1544920964*5D\$GPGLL,3247.2167,N,07954.5644,W,164359.000,A,D*4E	\c:1544921701*51\$IIVWT,127,R,16.87,N,08.68,M,,*3E
\c:1544920965*5C\$GPGLL,3247.223,N,07954.564,W,164357,A,A*5E	\c:1544921703*53\$IIVWT,124,R,18.34,N,09.44,M,,*34
\c:1544920965*5C\$GPGLL,3247.2167,N,07954.5644,W,164400.000,A,D*45	\c:1544921705*55\$IIVWT,124,R,17.92,N,09.22,M,,*37
\c:1544920966*5F\$GPGLL,3247.2167,N,07954.5644,W,164401.000,A,D*44	\c:1544921707*57\$IIVWT,130,R,17.47,N,08.99,M,,*3B
\c:1544920967*5E\$GPGLL,3247.223,N,07954.564,W,164400,A,A*5B	\c:1544921709*59\$IIVWT,133,R,17.22,N,08.86,M,,*35
\c:1544920967*5E\$GPGLL,3247.2167,N,07954.5644,W,164402.000,A,D*47	\c:1544921711*50\$IIVWT,137,R,16.32,N,08.40,M,,*3B
\c:1544920968*51\$GPGLL,3247.2167,N,07954.5643,W,164403.000,A,D*41	\c:1544921714*55\$IIVWT,128,R,19.76,N,10.17,M,,*31
\c:1544920969*50\$GPGLL,3247.223,N,07954.565,W,164403,A,A*59	\c:1544921716*57\$IIVWT,131,R,20.04,N,10.31,M,,*32
\c:1544920969*50\$GPGLL,3247.2167,N,07954.5643,W,164404.000,A,D*46	\c:1544921718*59\$IIVWT,126,R,18.38,N,09.46,M,,*38
\c:1544920970*58\$GPGLL,3247.2167,N,07954.5643,W,164405.000,A,D*47	\c:1544921720*52\$IIVWT,131,R,19.76,N,10.17,M,,*39
\c:1544920971*59\$GPGLL,3247.223,N,07954.565,W,164405,A,A*5F	\c:1544921722*50\$IIVWT,132,R,18.79,N,09.67,M,,*3B
\c:1544920972*5A\$GPGLL,3247.2167,N,07954.5643,W,164406.000,A,D*44	\c:1544921724*56\$IIVWT,132,R,19.49,N,10.03,M,,*33
\c:1544920972*5A\$GPGLL,3247.2167,N,07954.5643,W,164407.000,A,D*45	\c:1544921726*54\$IIVWT,132,R,19.57,N,10.07,M,,*38
\c:1544920973*5B\$GPGLL,3247.223,N,07954.565,W,164407,A,A*5D	\c:1544921728*5A\$IIVWT,129,R,19.65,N,10.11,M,,*34
\c:1544920973*5B\$GPGLL,3247.2167,N,07954.5643,W,164408.000,A,D*4A	\c:1544921730*53\$IIVWT,132,R,20.29,N,10.44,M,,*3C
\c:1544920974*5C\$GPGLL,3247.2167,N,07954.5643,W,164409.000,A,D*4B	\c:1544921732*51\$IIVWT,130,R,20.44,N,10.52,M,,*32
\c:1544920975*5D\$GPGLL,3247.223,N,07954.565,W,164409,A,A*53	\c:1544921734*57\$IIVWT,132,R,20.89,N,10.75,M,,*34
\c:1544920975*5D\$GPGLL,3247.2167,N,07954.5643,W,164410.000,A,D*43	\c:1544921736*55\$IIVWT,130,R,20.25,N,10.42,M,,*34
\c:1544920976*5E\$GPGLL,3247.2167,N,07954.5643,W,164411.000,A,D*42	\c:1544921738*5B\$IIVWT,131,R,21.09,N,10.85,M,,*31
\c:1544920977*5F\$GPGLL,3247.223,N,07954.565,W,164411,A,A*5A	\c:1544921740*54\$IIVWT,130,R,20.25,N,10.42,M,,*34
\c:1544920977*5F\$GPGLL,3247.2167,N,07954.5643,W,164412.000,A,D*41	\c:1544921742*56\$IIVWT,131,R,20.07,N,10.33,M,,*33
\c:1544920978*50\$GPGLL,3247.2167,N,07954.5643,W,164413.000,A,D*40	\c:1544921744*50\$IIVWT,131,R,19.88,N,10.23,M,,*3F
\c:1544920979*51\$GPGLL,3247.223,N,07954.565,W,164413,A,A*58	\c:1544921746*52\$IIVWT,131,R,20.29,N,10.44,M,,*3F
\c:1544920979*51\$GPGLL,3247.2167,N,07954.5643,W,164414.000,A,D*47	\c:1544921748*5C\$IIVWT,131,R,19.88,N,10.23,M,,*3F
\c:1544920980*57\$GPGLL,3247.2167,N,07954.5643,W,164415.000,A,D*46	\c:1544921750*55\$IIVWT,130,R,19.90,N,10.24,M,,*30
\c:1544920981*56\$GPGLL,3247.223,N,07954.565,W,164415,A,A*5E	\c:1544921752*57\$IIVWT,131,R,20.02,N,10.30,M,,*35
\c:1544920981*56\$GPGLL,3247.2167,N,07954.5643,W,164416.000,A,D*45	\c:1544921754*51\$IIVWT,132,R,19.63,N,10.10,M,,*39
\c:1544920982*55\$GPGLL,3247.2167,N,07954.5643,W,164417.000,A,D*44	\c:1544921757*52\$IIVWT,134,R,19.39,N,09.98,M,,*38
\c:1544920983*54\$GPGLL,3247.223,N,07954.565,W,164417,A,A*5C	\c:1544921759*5C\$IIVWT,133,R,19.10,N,09.83,M,,*3E
\c:1544920983*54\$GPGLL,3247.2167,N,07954.5643,W,164418.000,A,D*4B	\c:1544921761*57\$IIVWT,133,R,19.03,N,09.79,M,,*39
\c:1544920984*53\$GPGLL,3247.2167,N,07954.5643,W,164419.000,A,D*4A	\c:1544921763*55\$IIVWT,133,R,18.79,N,09.67,M,,*3A
\c:1544920985*52\$GPGLL,3247.223,N,07954.565,W,164419,A,A*52	\c:1544921765*53\$IIVWT,133,R,18.46,N,09.50,M,,*32
\c:1544920985*52\$GPGLL,3247.2167,N,07954.5643,W,164420.000,A,D*40	\c:1544921767*51\$IIVWT,133,R,18.36,N,09.45,M,,*31
\c:1544920986*51\$GPGLL,3247.2166,N,07954.5643,W,164421.000,A,D*40	\c:1544921769*5F\$IIVWT,135,R,18.64,N,09.59,M,,*3D
\c:1544920987*50\$GPGLL,3247.2165,N,07954.5644,W,164422.000,A,D*47	\c:1544921771*56\$IIVWT,136,R,19.32,N,09.94,M,,*3D
\c:1544920987*50\$GPGLL,3247.223,N,07954.565,W,164421,A,A*59	\c:1544921773*54\$IIVWT,139,R,18.66,N,09.60,M,,*39
\c:1544920988*5F\$GPGLL,3247.2164,N,07954.5644,W,164423.000,A,D*47	\c:1544921775*52\$IIVWT,138,R,17.65,N,09.08,M,,*3A
\c:1544920989*5E\$GPGLL,3247.2164,N,07954.5644,W,164424.000,A,D*40	\c:1544921777*50\$IIVWT,139,R,17.70,N,09.11,M,,*37
\c:1544920989*5E\$GPGLL,3247.223,N,07954.565,W,164423,A,A*5B	\c:1544921779*5E\$IIVWT,138,R,17.08,N,08.79,M,,*36
